<?xml version="1.0" encoding="UTF-8" standalone="yes"?>
<gpx
 xmlns="http://www.topografix.com/GPX/1/1"
 creator="OziExplorer Version 3955n - http://www.oziexplorer.com"
 version="1.1"
 xmlns:xsi="http://www.w3.org/2001/XMLSchema-instance"
 xsi:schemaLocation="http://www.topografix.com/GPX/1/1 http://www.topografix.com/GPX/1/1/gpx.xsd">
<metadata>
 <time>2013-09-13T10:14:31Z</time>
 <bounds minlat="-0.004269" minlon="0.000000" maxlat="46.933732" maxlon="46.688963"/>
</metadata>
<wpt lat="44.0833333" lon="15.2666667">
 <time>2013-09-13T12:14:31.861Z</time>
 <name>Lonici</name>
</wpt>
<wpt lat="45.0833333" lon="15.3000000">
 <time>2013-09-13T12:14:31.861Z</time>
 <name>Zloganje</name>
</wpt>
<wpt lat="45.1833333" lon="15.2333334">
 <time>2013-09-13T12:14:31.861Z</time>
 <name>Gradnik</name>
</wpt>
<wpt lat="45.1833333" lon="15.2666667">
 <time>2013-09-13T12:14:31.861Z</time>
 <name>Gornji Suhor pri Metliki</name>
</wpt>
<wpt lat="45.1833333" lon="15.2666667">
 <time>2013-09-13T12:14:31.861Z</time>
 <name>Dolnji Suhor pri Metliki</name>
</wpt>
<wpt lat="45.1833333" lon="15.3000000">
 <time>2013-09-13T12:14:31.861Z</time>
 <name>Grabrovec</name>
</wpt>
<wpt lat="45.3666667" lon="15.3833334">
 <time>2013-09-13T12:14:31.861Z</time>
 <name>Lokavec Potok</name>
</wpt>
<wpt lat="45.4361111" lon="15.1583334">
 <time>2013-09-13T12:14:31.861Z</time>
 <name>Damelj</name>
</wpt>
<wpt lat="45.4536111" lon="15.1702778">
 <time>2013-09-13T12:14:31.861Z</time>
 <name>Sinji Vrh</name>
</wpt>
<wpt lat="45.4597222" lon="15.2436111">
 <time>2013-09-13T12:14:31.861Z</time>
 <name>Ogulin</name>
</wpt>
<wpt lat="45.4600000" lon="13.9350000">
 <time>2013-09-13T12:14:31.861Z</time>
 <name>Dvori</name>
</wpt>
<wpt lat="45.4630556" lon="13.6947223">
 <time>2013-09-13T12:14:31.861Z</time>
 <name>Krkavce</name>
</wpt>
<wpt lat="45.4636111" lon="13.8908334">
 <time>2013-09-13T12:14:31.861Z</time>
 <name>Socerga</name>
</wpt>
<wpt lat="45.4666667" lon="13.5833334">
 <time>2013-09-13T12:14:31.861Z</time>
 <name>Valica</name>
</wpt>
<wpt lat="45.4666667" lon="13.7500000">
 <time>2013-09-13T12:14:31.861Z</time>
 <name>Pinjovac</name>
</wpt>
<wpt lat="45.4666667" lon="13.7833334">
 <time>2013-09-13T12:14:31.861Z</time>
 <name>Labor</name>
</wpt>
<wpt lat="45.4666667" lon="13.8166667">
 <time>2013-09-13T12:14:31.861Z</time>
 <name>Belvedur</name>
</wpt>
<wpt lat="45.4666667" lon="15.1666667">
 <time>2013-09-13T12:14:31.861Z</time>
 <name>Gominec</name>
</wpt>
<wpt lat="45.4666667" lon="15.2000000">
 <time>2013-09-13T12:14:31.861Z</time>
 <name>Nova Lipa</name>
</wpt>
<wpt lat="45.4666667" lon="15.2500000">
 <time>2013-09-13T12:14:31.861Z</time>
 <name>Vinica</name>
</wpt>
<wpt lat="45.4666667" lon="15.3166667">
 <time>2013-09-13T12:14:31.861Z</time>
 <name>Zilje</name>
</wpt>
<wpt lat="45.4666667" lon="15.3500000">
 <time>2013-09-13T12:14:31.861Z</time>
 <name>Preloka</name>
</wpt>
<wpt lat="45.4694444" lon="13.8197223">
 <time>2013-09-13T12:14:31.861Z</time>
 <name>Topolovec</name>
</wpt>
<wpt lat="45.4697222" lon="13.9708334">
 <time>2013-09-13T12:14:31.861Z</time>
 <name>Rakitovec</name>
</wpt>
<wpt lat="45.4719444" lon="13.6813889">
 <time>2013-09-13T12:14:31.861Z</time>
 <name>Sent Peter</name>
</wpt>
<wpt lat="45.4725000" lon="13.8588889">
 <time>2013-09-13T12:14:31.861Z</time>
 <name>Trebese</name>
</wpt>
<wpt lat="45.4741667" lon="13.6183334">
 <time>2013-09-13T12:14:31.861Z</time>
 <name>Portoroz</name>
</wpt>
<wpt lat="45.4744444" lon="13.7244445">
 <time>2013-09-13T12:14:31.861Z</time>
 <name>Puce</name>
</wpt>
<wpt lat="45.4775000" lon="13.6247223">
 <time>2013-09-13T12:14:31.861Z</time>
 <name>Secovlje</name>
</wpt>
<wpt lat="45.4777778" lon="13.7752778">
 <time>2013-09-13T12:14:31.861Z</time>
 <name>Kostabona</name>
</wpt>
<wpt lat="45.4780556" lon="14.8788889">
 <time>2013-09-13T12:14:31.861Z</time>
 <name>Fara</name>
</wpt>
<wpt lat="45.4786111" lon="13.9194445">
 <time>2013-09-13T12:14:31.861Z</time>
 <name>Movraz</name>
</wpt>
<wpt lat="45.4800000" lon="13.6938889">
 <time>2013-09-13T12:14:31.861Z</time>
 <name>Nova Vas nad Dragonjo</name>
</wpt>
<wpt lat="45.4805556" lon="13.8677778">
 <time>2013-09-13T12:14:31.861Z</time>
 <name>Popetre</name>
</wpt>
<wpt lat="0.0000000" lon="0.0000000">
 <time>1992-01-02T00:00:00.000Z</time>
 <name></name>
</wpt>
<wpt lat="45.4833333" lon="13.5833334">
 <time>2013-09-13T12:14:31.861Z</time>
 <name>Dragonja. Uvala</name>
</wpt>
<wpt lat="45.4833333" lon="13.8000000">
 <time>2013-09-13T12:14:31.861Z</time>
 <name>Glem</name>
</wpt>
<wpt lat="45.4833333" lon="13.9000000">
 <time>2013-09-13T12:14:31.861Z</time>
 <name>Smokvica</name>
</wpt>
<wpt lat="45.4833333" lon="14.3333334">
 <time>2013-09-13T12:14:31.861Z</time>
 <name>Susak</name>
</wpt>
<wpt lat="45.4833333" lon="14.8833334">
 <time>2013-09-13T12:14:31.861Z</time>
 <name>Vas</name>
</wpt>
<wpt lat="45.4833333" lon="15.1166667">
 <time>2013-09-13T12:14:31.861Z</time>
 <name>Lipovec</name>
</wpt>
<wpt lat="45.4833333" lon="15.2333334">
 <time>2013-09-13T12:14:31.861Z</time>
 <name>Hrast pri Vinici</name>
</wpt>
<wpt lat="45.4847222" lon="13.8016667">
 <time>2013-09-13T12:14:31.861Z</time>
 <name>Borst</name>
</wpt>
<wpt lat="45.4855556" lon="14.2397223">
 <time>2013-09-13T12:14:31.861Z</time>
 <name>Pasjak</name>
</wpt>
<wpt lat="45.4855556" lon="15.2002778">
 <time>2013-09-13T12:14:31.861Z</time>
 <name>Stara Lipa</name>
</wpt>
<wpt lat="45.4872222" lon="15.0816667">
 <time>2013-09-13T12:14:31.861Z</time>
 <name>Blazevci</name>
</wpt>
<wpt lat="45.4897222" lon="15.0308334">
 <time>2013-09-13T12:14:31.861Z</time>
 <name>Hrelin</name>
</wpt>
<wpt lat="45.4911111" lon="13.6663889">
 <time>2013-09-13T12:14:31.861Z</time>
 <name>Dvori</name>
</wpt>
<wpt lat="45.4927778" lon="14.9005556">
 <time>2013-09-13T12:14:31.861Z</time>
 <name>Vrh pri Fari</name>
</wpt>
<wpt lat="45.4936111" lon="14.3108334">
 <time>2013-09-13T12:14:31.861Z</time>
 <name>Nova Kracina</name>
</wpt>
<wpt lat="45.4941667" lon="13.6852778">
 <time>2013-09-13T12:14:31.861Z</time>
 <name>Padna</name>
</wpt>
<wpt lat="45.4950000" lon="13.7641667">
 <time>2013-09-13T12:14:31.861Z</time>
 <name>Pomjan</name>
</wpt>
<wpt lat="45.4952778" lon="13.8294445">
 <time>2013-09-13T12:14:31.861Z</time>
 <name>Truske</name>
</wpt>
<wpt lat="45.4969444" lon="14.8627778">
 <time>2013-09-13T12:14:31.861Z</time>
 <name>Vrsic</name>
</wpt>
<wpt lat="45.5000000" lon="13.5000000">
 <time>2013-09-13T12:14:31.861Z</time>
 <name>Gobo. Plicina</name>
</wpt>
<wpt lat="45.5000000" lon="13.6333334">
 <time>2013-09-13T12:14:31.861Z</time>
 <name>Malija</name>
</wpt>
<wpt lat="45.5000000" lon="13.7500000">
 <time>2013-09-13T12:14:31.861Z</time>
 <name>Slovensko Primorje</name>
</wpt>
<wpt lat="45.5000000" lon="13.7666667">
 <time>2013-09-13T12:14:31.861Z</time>
 <name>Veliki Centur</name>
</wpt>
<wpt lat="45.5000000" lon="13.8500000">
 <time>2013-09-13T12:14:31.861Z</time>
 <name>Zabavlje</name>
</wpt>
<wpt lat="45.5000000" lon="14.2666667">
 <time>2013-09-13T12:14:31.861Z</time>
 <name>Dolenje pri Jelsanah</name>
</wpt>
<wpt lat="45.5000000" lon="14.8333334">
 <time>2013-09-13T12:14:31.861Z</time>
 <name>Kapic</name>
</wpt>
<wpt lat="45.5000000" lon="14.9166667">
 <time>2013-09-13T12:14:31.861Z</time>
 <name>Sapnik</name>
</wpt>
<wpt lat="45.5000000" lon="15.0833334">
 <time>2013-09-13T12:14:31.861Z</time>
 <name>Stari Trg ob Kolpi</name>
</wpt>
<wpt lat="45.5000000" lon="15.1833334">
 <time>2013-09-13T12:14:31.861Z</time>
 <name>Veliki Nerajec</name>
</wpt>
<wpt lat="45.5000000" lon="15.2000000">
 <time>2013-09-13T12:14:31.861Z</time>
 <name>Gornji Suhor pri Vinici</name>
</wpt>
<wpt lat="45.5000000" lon="15.2000000">
 <time>2013-09-13T12:14:31.861Z</time>
 <name>Dolenji Suhor pri Vinici</name>
</wpt>
<wpt lat="45.5000000" lon="15.2166667">
 <time>2013-09-13T12:14:31.861Z</time>
 <name>Knezina</name>
</wpt>
<wpt lat="45.5000000" lon="15.2333334">
 <time>2013-09-13T12:14:31.861Z</time>
 <name>Kobilec</name>
</wpt>
<wpt lat="45.5005556" lon="14.0169445">
 <time>2013-09-13T12:14:31.861Z</time>
 <name>Jelovice</name>
</wpt>
<wpt lat="45.5011111" lon="13.9091667">
 <time>2013-09-13T12:14:31.861Z</time>
 <name>Zazid</name>
</wpt>
<wpt lat="45.5027778" lon="14.2738889">
 <time>2013-09-13T12:14:31.861Z</time>
 <name>Jelsane</name>
</wpt>
<wpt lat="45.5027778" lon="15.1286111">
 <time>2013-09-13T12:14:31.861Z</time>
 <name>Poljanska Gora</name>
</wpt>
<wpt lat="45.5030556" lon="13.6494445">
 <time>2013-09-13T12:14:31.861Z</time>
 <name>Serore</name>
</wpt>
<wpt lat="45.5033333" lon="15.1911111">
 <time>2013-09-13T12:14:31.861Z</time>
 <name>Mali Nerajec</name>
</wpt>
<wpt lat="45.5036111" lon="15.2497223">
 <time>2013-09-13T12:14:31.861Z</time>
 <name>Bojanci</name>
</wpt>
<wpt lat="45.5038889" lon="13.6416667">
 <time>2013-09-13T12:14:31.861Z</time>
 <name>Malija</name>
</wpt>
<wpt lat="45.5041667" lon="13.9319445">
 <time>2013-09-13T12:14:31.861Z</time>
 <name>Dol pri Hrastovljah</name>
</wpt>
<wpt lat="45.5061111" lon="13.8769445">
 <time>2013-09-13T12:14:31.861Z</time>
 <name>Hrastovlje</name>
</wpt>
<wpt lat="45.5066667" lon="14.8897223">
 <time>2013-09-13T12:14:31.861Z</time>
 <name>Nova Sela</name>
</wpt>
<wpt lat="45.5077778" lon="15.0575000">
 <time>2013-09-13T12:14:31.861Z</time>
 <name>Predgrad</name>
</wpt>
<wpt lat="45.5100000" lon="13.8266667">
 <time>2013-09-13T12:14:31.861Z</time>
 <name>Lopar</name>
</wpt>
<wpt lat="45.5102778" lon="13.8033334">
 <time>2013-09-13T12:14:31.861Z</time>
 <name>Marezige</name>
</wpt>
<wpt lat="45.5113889" lon="13.7047223">
 <time>2013-09-13T12:14:31.861Z</time>
 <name>Smarje</name>
</wpt>
<wpt lat="0.0000000" lon="0.0000000">
 <time>1992-01-02T00:00:00.000Z</time>
 <name></name>
</wpt>
<wpt lat="45.5144444" lon="14.4308334">
 <time>2013-09-13T12:14:31.861Z</time>
 <name>Gomanjce</name>
</wpt>
<wpt lat="45.5150000" lon="14.1641667">
 <time>2013-09-13T12:14:31.861Z</time>
 <name>Racice</name>
</wpt>
<wpt lat="45.5152778" lon="15.3194445">
 <time>2013-09-13T12:14:31.861Z</time>
 <name>Gorenjcj</name>
</wpt>
<wpt lat="45.5161111" lon="13.5888889">
 <time>2013-09-13T12:14:31.861Z</time>
 <name>Portoroz</name>
</wpt>
<wpt lat="45.5163889" lon="14.3455556">
 <time>2013-09-13T12:14:31.861Z</time>
 <name>Zabice</name>
</wpt>
<wpt lat="45.5166667" lon="13.5666667">
 <time>2013-09-13T12:14:31.861Z</time>
 <name>Fijesa</name>
</wpt>
<wpt lat="45.5166667" lon="13.5833334">
 <time>2013-09-13T12:14:31.861Z</time>
 <name>Fazan. Uvala</name>
</wpt>
<wpt lat="45.5166667" lon="13.7500000">
 <time>2013-09-13T12:14:31.861Z</time>
 <name>Manzan</name>
</wpt>
<wpt lat="45.5166667" lon="13.7666667">
 <time>2013-09-13T12:14:31.861Z</time>
 <name>Mali Centur</name>
</wpt>
<wpt lat="45.5166667" lon="13.9000000">
 <time>2013-09-13T12:14:31.861Z</time>
 <name>Podpec</name>
</wpt>
<wpt lat="45.5166667" lon="14.0666667">
 <time>2013-09-13T12:14:31.861Z</time>
 <name>Golac</name>
</wpt>
<wpt lat="45.5166667" lon="14.1166667">
 <time>2013-09-13T12:14:31.861Z</time>
 <name>Poljane</name>
</wpt>
<wpt lat="45.5166667" lon="14.2000000">
 <time>2013-09-13T12:14:31.861Z</time>
 <name>Studena Gora</name>
</wpt>
<wpt lat="45.5166667" lon="14.2166667">
 <time>2013-09-13T12:14:31.861Z</time>
 <name>Veliko Brdo</name>
</wpt>
<wpt lat="45.5166667" lon="14.8833334">
 <time>2013-09-13T12:14:31.861Z</time>
 <name>Banja Loka</name>
</wpt>
<wpt lat="45.5166667" lon="14.9000000">
 <time>2013-09-13T12:14:31.861Z</time>
 <name>Podstene</name>
</wpt>
<wpt lat="45.5166667" lon="15.0500000">
 <time>2013-09-13T12:14:31.861Z</time>
 <name>Jelenja Vas</name>
</wpt>
<wpt lat="45.5166667" lon="15.1166667">
 <time>2013-09-13T12:14:31.861Z</time>
 <name>Okraznik</name>
</wpt>
<wpt lat="45.5166667" lon="15.1333334">
 <time>2013-09-13T12:14:31.861Z</time>
 <name>Legen</name>
</wpt>
<wpt lat="45.5166667" lon="15.1666667">
 <time>2013-09-13T12:14:31.861Z</time>
 <name>Obrh pri Dragatusu</name>
</wpt>
<wpt lat="45.5166667" lon="15.1666667">
 <time>2013-09-13T12:14:31.861Z</time>
 <name>Breznik</name>
</wpt>
<wpt lat="45.5166667" lon="15.2000000">
 <time>2013-09-13T12:14:31.861Z</time>
 <name>Cresnjevec pri Dragatusu</name>
</wpt>
<wpt lat="45.5166667" lon="15.2000000">
 <time>2013-09-13T12:14:31.861Z</time>
 <name>Brdarci</name>
</wpt>
<wpt lat="45.5166667" lon="15.2666667">
 <time>2013-09-13T12:14:31.861Z</time>
 <name>Velike Bukovje</name>
</wpt>
<wpt lat="45.5169444" lon="14.8508334">
 <time>2013-09-13T12:14:31.861Z</time>
 <name>Puc</name>
</wpt>
<wpt lat="0.0000000" lon="0.0000000">
 <time>1992-01-02T00:00:00.000Z</time>
 <name></name>
</wpt>
<wpt lat="45.5188889" lon="13.7016667">
 <time>2013-09-13T12:14:31.861Z</time>
 <name>Gazon</name>
</wpt>
<wpt lat="45.5191667" lon="14.7541667">
 <time>2013-09-13T12:14:31.861Z</time>
 <name>Glintovec</name>
</wpt>
<wpt lat="45.5208333" lon="15.1755556">
 <time>2013-09-13T12:14:31.861Z</time>
 <name>Dragatus</name>
</wpt>
<wpt lat="45.5230556" lon="14.8222223">
 <time>2013-09-13T12:14:31.861Z</time>
 <name>Dolnja Briga</name>
</wpt>
<wpt lat="45.5236111" lon="14.1477778">
 <time>2013-09-13T12:14:31.861Z</time>
 <name>Podgrad</name>
</wpt>
<wpt lat="45.5238889" lon="15.0611111">
 <time>2013-09-13T12:14:31.861Z</time>
 <name>Zagozdac</name>
</wpt>
<wpt lat="0.0000000" lon="0.0000000">
 <time>1992-01-02T00:00:00.000Z</time>
 <name></name>
</wpt>
<wpt lat="45.5269444" lon="13.8336111">
 <time>2013-09-13T12:14:31.861Z</time>
 <name>Sveti Anton</name>
</wpt>
<wpt lat="45.5269444" lon="13.8711111">
 <time>2013-09-13T12:14:31.861Z</time>
 <name>Kubed</name>
</wpt>
<wpt lat="45.5277778" lon="14.3177778">
 <time>2013-09-13T12:14:31.861Z</time>
 <name>Trpcane</name>
</wpt>
<wpt lat="45.5291667" lon="13.9533334">
 <time>2013-09-13T12:14:31.861Z</time>
 <name>Podgorje</name>
</wpt>
<wpt lat="45.5297222" lon="13.5650000">
 <time>2013-09-13T12:14:31.861Z</time>
 <name>Madona. Rt</name>
</wpt>
<wpt lat="45.5297222" lon="13.9166667">
 <time>2013-09-13T12:14:31.861Z</time>
 <name>Praproce</name>
</wpt>
<wpt lat="45.5300000" lon="13.7916667">
 <time>2013-09-13T12:14:31.861Z</time>
 <name>Skocjan</name>
</wpt>
<wpt lat="45.5325000" lon="15.3019445">
 <time>2013-09-13T12:14:31.877Z</time>
 <name>Selo</name>
</wpt>
<wpt lat="45.5333333" lon="13.5333334">
 <time>2013-09-13T12:14:31.877Z</time>
 <name>Piranski Zaliv</name>
</wpt>
<wpt lat="45.5333333" lon="13.5666667">
 <time>2013-09-13T12:14:31.877Z</time>
 <name>Piran</name>
</wpt>
<wpt lat="45.5333333" lon="13.6000000">
 <time>2013-09-13T12:14:31.877Z</time>
 <name>Sveti Kriz. Rt</name>
</wpt>
<wpt lat="45.5333333" lon="13.6000000">
 <time>2013-09-13T12:14:31.877Z</time>
 <name>Strunjan. Rijeka</name>
</wpt>
<wpt lat="45.5333333" lon="13.6166667">
 <time>2013-09-13T12:14:31.877Z</time>
 <name>Strunjan</name>
</wpt>
<wpt lat="45.5333333" lon="13.7000000">
 <time>2013-09-13T12:14:31.877Z</time>
 <name>Sveti Marko</name>
</wpt>
<wpt lat="45.5333333" lon="13.8000000">
 <time>2013-09-13T12:14:31.877Z</time>
 <name>Potok</name>
</wpt>
<wpt lat="45.5333333" lon="13.8166667">
 <time>2013-09-13T12:14:31.877Z</time>
 <name>Cezarji</name>
</wpt>
<wpt lat="45.5333333" lon="13.9744445">
 <time>2013-09-13T12:14:31.877Z</time>
 <name>Slavnik</name>
</wpt>
<wpt lat="45.5333333" lon="14.1833334">
 <time>2013-09-13T12:14:31.877Z</time>
 <name>Sabonje</name>
</wpt>
<wpt lat="45.5333333" lon="14.2833334">
 <time>2013-09-13T12:14:31.877Z</time>
 <name>Gornji Zemon</name>
</wpt>
<wpt lat="45.5333333" lon="14.3000000">
 <time>2013-09-13T12:14:31.877Z</time>
 <name>Jablanica</name>
</wpt>
<wpt lat="45.5333333" lon="14.3333334">
 <time>2013-09-13T12:14:31.877Z</time>
 <name>Kutezevo</name>
</wpt>
<wpt lat="45.5333333" lon="14.3500000">
 <time>2013-09-13T12:14:31.877Z</time>
 <name>Podgraje</name>
</wpt>
<wpt lat="45.5333333" lon="14.4000000">
 <time>2013-09-13T12:14:31.877Z</time>
 <name>Zatrep</name>
</wpt>
<wpt lat="45.5333333" lon="14.7666667">
 <time>2013-09-13T12:14:31.877Z</time>
 <name>Bosljiva Loka</name>
</wpt>
<wpt lat="45.5333333" lon="14.8000000">
 <time>2013-09-13T12:14:31.877Z</time>
 <name>Gornja Briga</name>
</wpt>
<wpt lat="45.5333333" lon="14.9333334">
 <time>2013-09-13T12:14:31.877Z</time>
 <name>Muha Vas</name>
</wpt>
<wpt lat="45.5333333" lon="15.0166667">
 <time>2013-09-13T12:14:31.877Z</time>
 <name>Sveti Ilija</name>
</wpt>
<wpt lat="45.5333333" lon="15.0166667">
 <time>2013-09-13T12:14:31.877Z</time>
 <name>Spodnji Log</name>
</wpt>
<wpt lat="45.5333333" lon="15.0666667">
 <time>2013-09-13T12:14:31.877Z</time>
 <name>Gorenja Podgora</name>
</wpt>
<wpt lat="45.5333333" lon="15.0666667">
 <time>2013-09-13T12:14:31.877Z</time>
 <name>Dolenja Podgora</name>
</wpt>
<wpt lat="45.5333333" lon="15.1500000">
 <time>2013-09-13T12:14:31.877Z</time>
 <name>Tanca Gora</name>
</wpt>
<wpt lat="45.5333333" lon="15.2666667">
 <time>2013-09-13T12:14:31.877Z</time>
 <name>Pribinci</name>
</wpt>
<wpt lat="45.5333333" lon="15.2833334">
 <time>2013-09-13T12:14:31.877Z</time>
 <name>Bedenj</name>
</wpt>
<wpt lat="45.5333333" lon="15.3166667">
 <time>2013-09-13T12:14:31.877Z</time>
 <name>Adlesici</name>
</wpt>
<wpt lat="45.5336111" lon="14.2419445">
 <time>2013-09-13T12:14:31.877Z</time>
 <name>Mala Bukovica</name>
</wpt>
<wpt lat="45.5344444" lon="14.8572223">
 <time>2013-09-13T12:14:31.877Z</time>
 <name>Ajbelj</name>
</wpt>
<wpt lat="45.5347222" lon="14.4819445">
 <time>2013-09-13T12:14:31.877Z</time>
 <name>Klanska Polica</name>
</wpt>
<wpt lat="45.5355556" lon="13.6686111">
 <time>2013-09-13T12:14:31.877Z</time>
 <name>Izola</name>
</wpt>
<wpt lat="45.5369444" lon="13.8880556">
 <time>2013-09-13T12:14:31.877Z</time>
 <name>Loka</name>
</wpt>
<wpt lat="45.5377778" lon="15.2952778">
 <time>2013-09-13T12:14:31.877Z</time>
 <name>Vrasicko</name>
</wpt>
<wpt lat="45.5386111" lon="13.6436111">
 <time>2013-09-13T12:14:31.877Z</time>
 <name>Izola. Luka</name>
</wpt>
<wpt lat="45.5394444" lon="13.6150000">
 <time>2013-09-13T12:14:31.877Z</time>
 <name>Ronko. Rt</name>
</wpt>
<wpt lat="45.5408333" lon="14.1244445">
 <time>2013-09-13T12:14:31.877Z</time>
 <name>Hrusica</name>
</wpt>
<wpt lat="45.5419444" lon="13.7391667">
 <time>2013-09-13T12:14:31.877Z</time>
 <name>Kornalunga</name>
</wpt>
<wpt lat="45.5427778" lon="13.8486111">
 <time>2013-09-13T12:14:31.877Z</time>
 <name>Rizan</name>
</wpt>
<wpt lat="45.5433333" lon="15.1613889">
 <time>2013-09-13T12:14:31.877Z</time>
 <name>Kvasica</name>
</wpt>
<wpt lat="45.5441667" lon="13.7850000">
 <time>2013-09-13T12:14:31.877Z</time>
 <name>Sveti Minael</name>
</wpt>
<wpt lat="45.5444444" lon="13.7088889">
 <time>2013-09-13T12:14:31.877Z</time>
 <name>Semedela</name>
</wpt>
<wpt lat="0.0000003" lon="45.5444441">
 <ele>0.000000</ele>
 <time>1900-01-13T02:08:24.000Z</time>
 <name>Obrov</name>
 <cmt>2933223</cmt>
 <desc>2933223</desc>
</wpt>
<wpt lat="45.5450000" lon="15.0272223">
 <time>2013-09-13T12:14:31.877Z</time>
 <name>Videm</name>
</wpt>
<wpt lat="45.5452778" lon="14.6836111">
 <time>2013-09-13T12:14:31.877Z</time>
 <name>Plesce</name>
</wpt>
<wpt lat="45.5466667" lon="13.6952778">
 <time>2013-09-13T12:14:31.877Z</time>
 <name>Podmarkovac</name>
</wpt>
<wpt lat="45.5466667" lon="13.7291667">
 <time>2013-09-13T12:14:31.877Z</time>
 <name>Koper</name>
</wpt>
<wpt lat="45.5475000" lon="14.2252778">
 <time>2013-09-13T12:14:31.877Z</time>
 <name>Velika Bukovica</name>
</wpt>
<wpt lat="45.5477778" lon="13.8511111">
 <time>2013-09-13T12:14:31.877Z</time>
 <name>Tinjan</name>
</wpt>
<wpt lat="45.5480556" lon="14.7858334">
 <time>2013-09-13T12:14:31.877Z</time>
 <name>Borovec pri Kocevski Reki</name>
</wpt>
<wpt lat="0.0000000" lon="0.0000000">
 <time>1992-01-02T00:00:00.000Z</time>
 <name></name>
</wpt>
<wpt lat="45.5494444" lon="13.8802778">
 <time>2013-09-13T12:14:31.877Z</time>
 <name>Crni Kal</name>
</wpt>
<wpt lat="45.5500000" lon="13.7666667">
 <time>2013-09-13T12:14:31.877Z</time>
 <name>Bertoki</name>
</wpt>
<wpt lat="45.5500000" lon="13.7833334">
 <time>2013-09-13T12:14:31.877Z</time>
 <name>Rizana</name>
</wpt>
<wpt lat="45.5500000" lon="13.8133334">
 <time>2013-09-13T12:14:31.877Z</time>
 <name>Dekani</name>
</wpt>
<wpt lat="45.5500000" lon="14.0166667">
 <time>2013-09-13T12:14:31.877Z</time>
 <name>Skadanscina</name>
</wpt>
<wpt lat="45.5500000" lon="14.0666667">
 <time>2013-09-13T12:14:31.877Z</time>
 <name>Gradisce pri Materiji</name>
</wpt>
<wpt lat="45.5500000" lon="14.1000000">
 <time>2013-09-13T12:14:31.877Z</time>
 <name>Male Loce</name>
</wpt>
<wpt lat="45.5500000" lon="14.1000000">
 <time>2013-09-13T12:14:31.877Z</time>
 <name>Javorje</name>
</wpt>
<wpt lat="45.5500000" lon="14.1500000">
 <time>2013-09-13T12:14:31.877Z</time>
 <name>Podbeze</name>
</wpt>
<wpt lat="45.5500000" lon="14.2166667">
 <time>2013-09-13T12:14:31.877Z</time>
 <name>Harije</name>
</wpt>
<wpt lat="45.5500000" lon="14.2333334">
 <time>2013-09-13T12:14:31.877Z</time>
 <name>Mola</name>
</wpt>
<wpt lat="45.5500000" lon="14.2500000">
 <time>2013-09-13T12:14:31.877Z</time>
 <name>Koseze</name>
</wpt>
<wpt lat="45.5500000" lon="14.2666667">
 <time>2013-09-13T12:14:31.877Z</time>
 <name>Dolnji Zemon</name>
</wpt>
<wpt lat="45.5500000" lon="14.7166667">
 <time>2013-09-13T12:14:31.877Z</time>
 <name>Zgornji Cacic</name>
</wpt>
<wpt lat="45.5500000" lon="14.7166667">
 <time>2013-09-13T12:14:31.877Z</time>
 <name>Spodnji Cacic</name>
</wpt>
<wpt lat="45.5500000" lon="14.7333334">
 <time>2013-09-13T12:14:31.877Z</time>
 <name>Mola</name>
</wpt>
<wpt lat="45.5500000" lon="14.7333334">
 <time>2013-09-13T12:14:31.877Z</time>
 <name>Ribjek</name>
</wpt>
<wpt lat="45.5500000" lon="14.7333334">
 <time>2013-09-13T12:14:31.877Z</time>
 <name>Moz</name>
</wpt>
<wpt lat="45.5500000" lon="14.8333334">
 <time>2013-09-13T12:14:31.877Z</time>
 <name>Preza</name>
</wpt>
<wpt lat="45.5500000" lon="14.9000000">
 <time>2013-09-13T12:14:31.877Z</time>
 <name>Bolvik</name>
</wpt>
<wpt lat="45.5500000" lon="14.9166667">
 <time>2013-09-13T12:14:31.877Z</time>
 <name>Skrilj</name>
</wpt>
<wpt lat="45.5500000" lon="15.0166667">
 <time>2013-09-13T12:14:31.877Z</time>
 <name>Knezja Lipa</name>
</wpt>
<wpt lat="45.5500000" lon="15.0500000">
 <time>2013-09-13T12:14:31.877Z</time>
 <name>Ceplje</name>
</wpt>
<wpt lat="45.5500000" lon="15.1500000">
 <time>2013-09-13T12:14:31.877Z</time>
 <name>Doblice</name>
</wpt>
<wpt lat="45.5500000" lon="15.1666667">
 <time>2013-09-13T12:14:31.877Z</time>
 <name>Kanizarica</name>
</wpt>
<wpt lat="45.5500000" lon="15.1666667">
 <time>2013-09-13T12:14:31.877Z</time>
 <name>Jerneja Vas</name>
</wpt>
<wpt lat="45.5500000" lon="15.2000000">
 <time>2013-09-13T12:14:31.877Z</time>
 <name>Butoraj</name>
</wpt>
<wpt lat="45.5500000" lon="15.2500000">
 <time>2013-09-13T12:14:31.877Z</time>
 <name>Tribuce</name>
</wpt>
<wpt lat="45.5527778" lon="14.8638889">
 <time>2013-09-13T12:14:31.877Z</time>
 <name>Morava</name>
</wpt>
<wpt lat="45.5541667" lon="14.2772223">
 <time>2013-09-13T12:14:31.877Z</time>
 <name>Jasen</name>
</wpt>
<wpt lat="45.5547222" lon="14.1972223">
 <time>2013-09-13T12:14:31.877Z</time>
 <name>Zarecica</name>
</wpt>
<wpt lat="45.5555556" lon="13.8975000">
 <time>2013-09-13T12:14:31.877Z</time>
 <name>Crnotice</name>
</wpt>
<wpt lat="45.5569444" lon="13.9594445">
 <time>2013-09-13T12:14:31.877Z</time>
 <name>Zbelunca</name>
</wpt>
<wpt lat="45.5583333" lon="13.7438889">
 <time>2013-09-13T12:14:31.877Z</time>
 <name>Rizana</name>
</wpt>
<wpt lat="45.5586111" lon="15.0438889">
 <time>2013-09-13T12:14:31.877Z</time>
 <name>Nemska Loka</name>
</wpt>
<wpt lat="45.5602778" lon="14.0402778">
 <time>2013-09-13T12:14:31.877Z</time>
 <name>Markovscina</name>
</wpt>
<wpt lat="45.5633333" lon="13.7102778">
 <time>2013-09-13T12:14:31.877Z</time>
 <name>Koperski Zaliv</name>
</wpt>
<wpt lat="45.5633333" lon="14.1758334">
 <time>2013-09-13T12:14:31.877Z</time>
 <name>Tominje</name>
</wpt>
<wpt lat="45.5647222" lon="14.1600000">
 <time>2013-09-13T12:14:31.877Z</time>
 <name>Zajelsje</name>
</wpt>
<wpt lat="0.0000000" lon="0.0000000">
 <time>1992-01-02T00:00:00.000Z</time>
 <name></name>
</wpt>
<wpt lat="45.5663889" lon="13.7994445">
 <time>2013-09-13T12:14:31.877Z</time>
 <name>Skofije</name>
</wpt>
<wpt lat="45.5666667" lon="13.8666667">
 <time>2013-09-13T12:14:31.877Z</time>
 <name>Osp</name>
</wpt>
<wpt lat="45.5666667" lon="13.8666667">
 <time>2013-09-13T12:14:31.877Z</time>
 <name>Gabrovica pri Crnem Kalu</name>
</wpt>
<wpt lat="45.5666667" lon="14.0500000">
 <time>2013-09-13T12:14:31.877Z</time>
 <name>Slivje</name>
</wpt>
<wpt lat="45.5666667" lon="14.2166667">
 <time>2013-09-13T12:14:31.877Z</time>
 <name>Zarecje</name>
</wpt>
<wpt lat="45.5666667" lon="14.2166667">
 <time>2013-09-13T12:14:31.877Z</time>
 <name>Dobro Polje</name>
</wpt>
<wpt lat="45.5666667" lon="14.2833334">
 <time>2013-09-13T12:14:31.877Z</time>
 <name>Vrbovo</name>
</wpt>
<wpt lat="45.5666667" lon="14.8166667">
 <time>2013-09-13T12:14:31.877Z</time>
 <name>Sadni Hrib</name>
</wpt>
<wpt lat="45.5666667" lon="14.8333334">
 <time>2013-09-13T12:14:31.877Z</time>
 <name>Mokri Potok</name>
</wpt>
<wpt lat="45.5666667" lon="14.9000000">
 <time>2013-09-13T12:14:31.877Z</time>
 <name>Rogati Hrib</name>
</wpt>
<wpt lat="45.5666667" lon="14.9500000">
 <time>2013-09-13T12:14:31.877Z</time>
 <name>Rajndol</name>
</wpt>
<wpt lat="45.5666667" lon="15.0166667">
 <time>2013-09-13T12:14:31.877Z</time>
 <name>Svetli Potok</name>
</wpt>
<wpt lat="45.5666667" lon="15.0666667">
 <time>2013-09-13T12:14:31.877Z</time>
 <name>Bukova Gora</name>
</wpt>
<wpt lat="45.5666667" lon="15.1166667">
 <time>2013-09-13T12:14:31.877Z</time>
 <name>Bistrica</name>
</wpt>
<wpt lat="45.5666667" lon="15.2333334">
 <time>2013-09-13T12:14:31.877Z</time>
 <name>Desinec</name>
</wpt>
<wpt lat="45.5669444" lon="15.1997223">
 <time>2013-09-13T12:14:31.877Z</time>
 <name>Loka</name>
</wpt>
<wpt lat="0.0000000" lon="0.0000000">
 <time>1992-01-02T00:00:00.000Z</time>
 <name></name>
</wpt>
<wpt lat="45.5688889" lon="13.8883334">
 <time>2013-09-13T12:14:31.877Z</time>
 <name>Petrinje</name>
</wpt>
<wpt lat="45.5700000" lon="13.9380556">
 <time>2013-09-13T12:14:31.877Z</time>
 <name>Presnica</name>
</wpt>
<wpt lat="45.5708333" lon="13.9536111">
 <time>2013-09-13T12:14:31.877Z</time>
 <name>Rozic</name>
</wpt>
<wpt lat="45.5711111" lon="14.2425000">
 <time>2013-09-13T12:14:31.877Z</time>
 <name>Ilirska Bistrica</name>
</wpt>
<wpt lat="45.5716667" lon="13.7472223">
 <time>2013-09-13T12:14:31.877Z</time>
 <name>Ankaran</name>
</wpt>
<wpt lat="45.5722222" lon="13.7786111">
 <time>2013-09-13T12:14:31.877Z</time>
 <name>Plavje</name>
</wpt>
<wpt lat="45.5722222" lon="14.8713889">
 <time>2013-09-13T12:14:31.877Z</time>
 <name>Stalcerji</name>
</wpt>
<wpt lat="0.0000000" lon="0.0000000">
 <time>1992-01-02T00:00:00.000Z</time>
 <name></name>
</wpt>
<wpt lat="45.5738889" lon="14.1919445">
 <time>2013-09-13T12:14:31.877Z</time>
 <name>Brce</name>
</wpt>
<wpt lat="45.5741667" lon="14.8491667">
 <time>2013-09-13T12:14:31.877Z</time>
 <name>Novi Lazi</name>
</wpt>
<wpt lat="45.5741667" lon="15.2911111">
 <time>2013-09-13T12:14:31.877Z</time>
 <name>Griblje</name>
</wpt>
<wpt lat="45.5766667" lon="15.1900000">
 <time>2013-09-13T12:14:31.877Z</time>
 <name>Crnomelj</name>
</wpt>
<wpt lat="45.5777778" lon="14.7988889">
 <time>2013-09-13T12:14:31.877Z</time>
 <name>Kocevska Reka</name>
</wpt>
<wpt lat="45.5805556" lon="13.8727778">
 <time>2013-09-13T12:14:31.877Z</time>
 <name>Kastelec</name>
</wpt>
<wpt lat="45.5811111" lon="13.9941667">
 <time>2013-09-13T12:14:31.877Z</time>
 <name>Materija</name>
</wpt>
<wpt lat="45.5819444" lon="14.1030556">
 <time>2013-09-13T12:14:31.877Z</time>
 <name>Brkini</name>
</wpt>
<wpt lat="45.5833333" lon="13.7333334">
 <time>2013-09-13T12:14:31.877Z</time>
 <name>Valdoltra</name>
</wpt>
<wpt lat="45.5833333" lon="13.7333334">
 <time>2013-09-13T12:14:31.877Z</time>
 <name>Sveti Nikolaj</name>
</wpt>
<wpt lat="45.5833333" lon="13.7833334">
 <time>2013-09-13T12:14:31.877Z</time>
 <name>Ankaran</name>
</wpt>
<wpt lat="45.5833333" lon="14.0000000">
 <time>2013-09-13T12:14:31.877Z</time>
 <name>Bac pri Materiji</name>
</wpt>
<wpt lat="45.5833333" lon="14.0500000">
 <time>2013-09-13T12:14:31.877Z</time>
 <name>Mrse</name>
</wpt>
<wpt lat="45.5833333" lon="14.1000000">
 <time>2013-09-13T12:14:31.877Z</time>
 <name>Brezovo Brdo</name>
</wpt>
<wpt lat="45.5833333" lon="14.1166667">
 <time>2013-09-13T12:14:31.877Z</time>
 <name>Gaberk</name>
</wpt>
<wpt lat="45.5833333" lon="14.1500000">
 <time>2013-09-13T12:14:31.877Z</time>
 <name>Pregarje</name>
</wpt>
<wpt lat="45.5833333" lon="14.3500000">
 <time>2013-09-13T12:14:31.877Z</time>
 <name>Ostrica</name>
</wpt>
<wpt lat="45.5833333" lon="14.3500000">
 <time>2013-09-13T12:14:31.877Z</time>
 <name>Mala Ostrica</name>
</wpt>
<wpt lat="45.5833333" lon="14.4666667">
 <time>2013-09-13T12:14:31.877Z</time>
 <name>Sneznik</name>
</wpt>
<wpt lat="45.5833333" lon="14.4666667">
 <time>2013-09-13T12:14:31.877Z</time>
 <name>Mali Sneznik</name>
</wpt>
<wpt lat="45.5833333" lon="14.6833334">
 <time>2013-09-13T12:14:31.877Z</time>
 <name>Crni Potok pri Dragi</name>
</wpt>
<wpt lat="45.5833333" lon="14.7166667">
 <time>2013-09-13T12:14:31.877Z</time>
 <name>Donji Zagari</name>
</wpt>
<wpt lat="45.5833333" lon="14.8833334">
 <time>2013-09-13T12:14:31.877Z</time>
 <name>Crni Potok pri Kocevju</name>
</wpt>
<wpt lat="45.5833333" lon="14.9666667">
 <time>2013-09-13T12:14:31.877Z</time>
 <name>Suhi Potok</name>
</wpt>
<wpt lat="45.5833333" lon="14.9666667">
 <time>2013-09-13T12:14:31.877Z</time>
 <name>Kacji Potok</name>
</wpt>
<wpt lat="45.5833333" lon="15.0333334">
 <time>2013-09-13T12:14:31.877Z</time>
 <name>Hrib pri Koprivniku</name>
</wpt>
<wpt lat="45.5833333" lon="15.1166667">
 <time>2013-09-13T12:14:31.877Z</time>
 <name>Mavrlen</name>
</wpt>
<wpt lat="45.5833333" lon="15.1500000">
 <time>2013-09-13T12:14:31.877Z</time>
 <name>Tusev Dol</name>
</wpt>
<wpt lat="45.5833333" lon="15.2333334">
 <time>2013-09-13T12:14:31.877Z</time>
 <name>Zastava</name>
</wpt>
<wpt lat="45.5833333" lon="15.2500000">
 <time>2013-09-13T12:14:31.877Z</time>
 <name>Bela Krajina</name>
</wpt>
<wpt lat="45.5833333" lon="15.2666667">
 <time>2013-09-13T12:14:31.877Z</time>
 <name>Cerkvisce</name>
</wpt>
<wpt lat="45.5833333" lon="15.2833334">
 <time>2013-09-13T12:14:31.877Z</time>
 <name>Krasinec</name>
</wpt>
<wpt lat="45.5852778" lon="14.2175000">
 <time>2013-09-13T12:14:31.877Z</time>
 <name>Topolc</name>
</wpt>
<wpt lat="45.5863889" lon="14.9333334">
 <time>2013-09-13T12:14:31.877Z</time>
 <name>Mozelj</name>
</wpt>
<wpt lat="45.5872222" lon="13.7497223">
 <time>2013-09-13T12:14:31.877Z</time>
 <name>Hrvatini</name>
</wpt>
<wpt lat="45.5888889" lon="13.9888889">
 <time>2013-09-13T12:14:31.877Z</time>
 <name>Rozice</name>
</wpt>
<wpt lat="45.5891667" lon="14.3311111">
 <time>2013-09-13T12:14:31.877Z</time>
 <name>Milonja</name>
</wpt>
<wpt lat="45.5897222" lon="14.4475000">
 <time>2013-09-13T12:14:31.877Z</time>
 <name>Veliki Sneznik</name>
</wpt>
<wpt lat="0.0000000" lon="0.0000000">
 <time>1992-01-02T00:00:00.000Z</time>
 <name></name>
</wpt>
<wpt lat="45.5905556" lon="15.2794445">
 <time>2013-09-13T12:14:31.877Z</time>
 <name>Borst</name>
</wpt>
<wpt lat="45.5908333" lon="13.7066667">
 <time>2013-09-13T12:14:31.877Z</time>
 <name>Debeli. Rt</name>
</wpt>
<wpt lat="45.5908333" lon="13.9088889">
 <time>2013-09-13T12:14:31.877Z</time>
 <name>Ocizla</name>
</wpt>
<wpt lat="45.5947222" lon="13.9719445">
 <time>2013-09-13T12:14:31.877Z</time>
 <name>Tublje pri Hrpeljah</name>
</wpt>
<wpt lat="45.5977778" lon="13.9272223">
 <time>2013-09-13T12:14:31.877Z</time>
 <name>Klanec pri Kozini</name>
</wpt>
<wpt lat="45.5986111" lon="14.0877778">
 <time>2013-09-13T12:14:31.877Z</time>
 <name>Tatre</name>
</wpt>
<wpt lat="45.5994444" lon="15.2363889">
 <time>2013-09-13T12:14:31.877Z</time>
 <name>Vranovici</name>
</wpt>
<wpt lat="45.6000000" lon="13.9000000">
 <time>2013-09-13T12:14:31.877Z</time>
 <name>Beka</name>
</wpt>
<wpt lat="0.0000000" lon="0.0000000">
 <time>1992-01-02T00:00:00.000Z</time>
 <name></name>
</wpt>
<wpt lat="45.6000000" lon="14.0000000">
 <time>2013-09-13T12:14:31.877Z</time>
 <name>Brezovica</name>
</wpt>
<wpt lat="45.6000000" lon="14.1000000">
 <time>2013-09-13T12:14:31.877Z</time>
 <name>Rjavce</name>
</wpt>
<wpt lat="45.6000000" lon="14.1666667">
 <time>2013-09-13T12:14:31.877Z</time>
 <name>Celje</name>
</wpt>
<wpt lat="45.6000000" lon="14.1833334">
 <time>2013-09-13T12:14:31.877Z</time>
 <name>Smrje</name>
</wpt>
<wpt lat="45.6000000" lon="14.1833334">
 <time>2013-09-13T12:14:31.877Z</time>
 <name>Prem</name>
</wpt>
<wpt lat="45.6000000" lon="14.1833334">
 <time>2013-09-13T12:14:31.877Z</time>
 <name>Gornja Bitnja</name>
</wpt>
<wpt lat="45.6000000" lon="14.1833334">
 <time>2013-09-13T12:14:31.877Z</time>
 <name>Dolnja Bitnja</name>
</wpt>
<wpt lat="45.6000000" lon="14.2166667">
 <time>2013-09-13T12:14:31.877Z</time>
 <name>Podstenje</name>
</wpt>
<wpt lat="45.6000000" lon="14.2166667">
 <time>2013-09-13T12:14:31.877Z</time>
 <name>Merece</name>
</wpt>
<wpt lat="45.6000000" lon="14.2833334">
 <time>2013-09-13T12:14:31.877Z</time>
 <name>Milanka</name>
</wpt>
<wpt lat="45.6000000" lon="14.5000000">
 <time>2013-09-13T12:14:31.877Z</time>
 <name>Snezniska Planota</name>
</wpt>
<wpt lat="45.6000000" lon="14.7333334">
 <time>2013-09-13T12:14:31.877Z</time>
 <name>Goteniski Sneznik</name>
</wpt>
<wpt lat="45.6000000" lon="14.8000000">
 <time>2013-09-13T12:14:31.877Z</time>
 <name>Mlaka pri Kocevski Reki</name>
</wpt>
<wpt lat="45.6000000" lon="14.8000000">
 <time>2013-09-13T12:14:31.877Z</time>
 <name>Koce</name>
</wpt>
<wpt lat="45.6000000" lon="14.9000000">
 <time>2013-09-13T12:14:31.877Z</time>
 <name>Zajcje Polje</name>
</wpt>
<wpt lat="45.6000000" lon="15.0000000">
 <time>2013-09-13T12:14:31.877Z</time>
 <name>Staro Brezje</name>
</wpt>
<wpt lat="45.6000000" lon="15.1500000">
 <time>2013-09-13T12:14:31.877Z</time>
 <name>Rodine</name>
</wpt>
<wpt lat="45.6000000" lon="15.1666667">
 <time>2013-09-13T12:14:31.877Z</time>
 <name>Otovec</name>
</wpt>
<wpt lat="45.6000000" lon="15.2666667">
 <time>2013-09-13T12:14:31.877Z</time>
 <name>Borst</name>
</wpt>
<wpt lat="0.0000000" lon="0.0000000">
 <time>1992-01-02T00:00:00.000Z</time>
 <name></name>
</wpt>
<wpt lat="45.6016667" lon="15.1738889">
 <time>2013-09-13T12:14:31.877Z</time>
 <name>Lokve</name>
</wpt>
<wpt lat="45.6025000" lon="15.0333334">
 <time>2013-09-13T12:14:31.877Z</time>
 <name>Koprivnik</name>
</wpt>
<wpt lat="45.6036111" lon="14.1338889">
 <time>2013-09-13T12:14:31.877Z</time>
 <name>Preloze</name>
</wpt>
<wpt lat="45.6044444" lon="14.2380556">
 <time>2013-09-13T12:14:31.877Z</time>
 <name>Sembije</name>
</wpt>
<wpt lat="45.6044444" lon="15.0925000">
 <time>2013-09-13T12:14:31.877Z</time>
 <name>Sredgora</name>
</wpt>
<wpt lat="45.6047222" lon="14.6730556">
 <time>2013-09-13T12:14:31.877Z</time>
 <name>Trava</name>
</wpt>
<wpt lat="45.6075000" lon="13.9430556">
 <time>2013-09-13T12:14:31.877Z</time>
 <name>Hrpelje</name>
</wpt>
<wpt lat="45.6100000" lon="14.1533334">
 <time>2013-09-13T12:14:31.877Z</time>
 <name>Janezevo Brdo</name>
</wpt>
<wpt lat="45.6105556" lon="13.9355556">
 <time>2013-09-13T12:14:31.877Z</time>
 <name>Kozina</name>
</wpt>
<wpt lat="45.6122222" lon="14.9936111">
 <time>2013-09-13T12:14:31.877Z</time>
 <name>Mackovec</name>
</wpt>
<wpt lat="0.0000000" lon="0.0000000">
 <time>1992-01-02T00:00:00.000Z</time>
 <name></name>
</wpt>
<wpt lat="45.6130556" lon="14.0327778">
 <time>2013-09-13T12:14:31.877Z</time>
 <name>Artvize</name>
</wpt>
<wpt lat="45.6136111" lon="14.7508334">
 <time>2013-09-13T12:14:31.877Z</time>
 <name>Gotenica</name>
</wpt>
<wpt lat="45.6136111" lon="14.8916667">
 <time>2013-09-13T12:14:31.877Z</time>
 <name>Livold</name>
</wpt>
<wpt lat="45.6150000" lon="14.5002778">
 <time>2013-09-13T12:14:31.877Z</time>
 <name>Bela Voda</name>
</wpt>
<wpt lat="45.6152778" lon="13.9833334">
 <time>2013-09-13T12:14:31.877Z</time>
 <name>Slope</name>
</wpt>
<wpt lat="0.0000000" lon="0.0000000">
 <time>1992-01-02T00:00:00.000Z</time>
 <name></name>
</wpt>
<wpt lat="45.6166667" lon="13.9000000">
 <time>2013-09-13T12:14:31.877Z</time>
 <name>Nasirec</name>
</wpt>
<wpt lat="45.6166667" lon="14.0666667">
 <time>2013-09-13T12:14:31.877Z</time>
 <name>Vatovlje</name>
</wpt>
<wpt lat="45.6166667" lon="14.0833334">
 <time>2013-09-13T12:14:31.892Z</time>
 <name>Suhorca</name>
</wpt>
<wpt lat="45.6166667" lon="14.0833334">
 <time>2013-09-13T12:14:31.892Z</time>
 <name>Kozjane</name>
</wpt>
<wpt lat="45.6166667" lon="14.1333334">
 <time>2013-09-13T12:14:31.892Z</time>
 <name>Ostrozno Brdo</name>
</wpt>
<wpt lat="45.6166667" lon="14.2000000">
 <time>2013-09-13T12:14:31.892Z</time>
 <name>Ratecevo Brdo</name>
</wpt>
<wpt lat="45.6166667" lon="14.6333334">
 <time>2013-09-13T12:14:31.892Z</time>
 <name>Stari Kot</name>
</wpt>
<wpt lat="45.6166667" lon="15.1166667">
 <time>2013-09-13T12:14:31.892Z</time>
 <name>Planina</name>
</wpt>
<wpt lat="45.6166667" lon="15.1666667">
 <time>2013-09-13T12:14:31.892Z</time>
 <name>Rucetna Vas</name>
</wpt>
<wpt lat="45.6166667" lon="15.1666667">
 <time>2013-09-13T12:14:31.892Z</time>
 <name>Petrova Vas</name>
</wpt>
<wpt lat="45.6166667" lon="15.2500000">
 <time>2013-09-13T12:14:31.892Z</time>
 <name>Gradac</name>
</wpt>
<wpt lat="45.6166667" lon="15.2833334">
 <time>2013-09-13T12:14:31.892Z</time>
 <name>Zemelj</name>
</wpt>
<wpt lat="45.6166667" lon="15.2833334">
 <time>2013-09-13T12:14:31.892Z</time>
 <name>Podzemelj</name>
</wpt>
<wpt lat="45.6166667" lon="15.3000000">
 <time>2013-09-13T12:14:31.892Z</time>
 <name>Otok</name>
</wpt>
<wpt lat="45.6202778" lon="14.1863889">
 <time>2013-09-13T12:14:31.892Z</time>
 <name>Kolovce</name>
</wpt>
<wpt lat="45.6225000" lon="14.2872223">
 <time>2013-09-13T12:14:31.892Z</time>
 <name>Koritnice</name>
</wpt>
<wpt lat="45.6233333" lon="13.9463889">
 <time>2013-09-13T12:14:31.892Z</time>
 <name>Vrhpolje</name>
</wpt>
<wpt lat="45.6233333" lon="14.4619445">
 <time>2013-09-13T12:14:31.892Z</time>
 <name>Leskova Dol</name>
</wpt>
<wpt lat="45.6238889" lon="14.2463889">
 <time>2013-09-13T12:14:31.892Z</time>
 <name>Knezak</name>
</wpt>
<wpt lat="45.6263889" lon="13.9811111">
 <time>2013-09-13T12:14:31.892Z</time>
 <name>Rodik</name>
</wpt>
<wpt lat="45.6283333" lon="14.0372223">
 <time>2013-09-13T12:14:31.892Z</time>
 <name>Vareje</name>
</wpt>
<wpt lat="45.6294444" lon="15.3030556">
 <time>2013-09-13T12:14:31.892Z</time>
 <name>Lahinja</name>
</wpt>
<wpt lat="45.6305556" lon="14.3694445">
 <time>2013-09-13T12:14:31.892Z</time>
 <name>Masun</name>
</wpt>
<wpt lat="45.6325000" lon="14.8227778">
 <time>2013-09-13T12:14:31.892Z</time>
 <name>Kocevsko Pogorje</name>
</wpt>
<wpt lat="0.0000000" lon="0.0000000">
 <time>1992-01-02T00:00:00.000Z</time>
 <name></name>
</wpt>
<wpt lat="45.6333333" lon="14.0166667">
 <time>2013-09-13T12:14:31.892Z</time>
 <name>Podgrad</name>
</wpt>
<wpt lat="45.6333333" lon="14.1000000">
 <time>2013-09-13T12:14:31.892Z</time>
 <name>Suhorje</name>
</wpt>
<wpt lat="45.6333333" lon="14.1666667">
 <time>2013-09-13T12:14:31.892Z</time>
 <name>Ribnica</name>
</wpt>
<wpt lat="45.6333333" lon="14.6500000">
 <time>2013-09-13T12:14:31.892Z</time>
 <name>Parg</name>
</wpt>
<wpt lat="45.6333333" lon="14.6666667">
 <time>2013-09-13T12:14:31.892Z</time>
 <name>Draga</name>
</wpt>
<wpt lat="45.6333333" lon="14.7166667">
 <time>2013-09-13T12:14:31.892Z</time>
 <name>Gotenicki Vrh</name>
</wpt>
<wpt lat="45.6333333" lon="14.8666667">
 <time>2013-09-13T12:14:31.892Z</time>
 <name>Rinza</name>
</wpt>
<wpt lat="45.6333333" lon="14.9000000">
 <time>2013-09-13T12:14:31.892Z</time>
 <name>Cvislerji</name>
</wpt>
<wpt lat="45.6333333" lon="14.9500000">
 <time>2013-09-13T12:14:31.892Z</time>
 <name>Onek</name>
</wpt>
<wpt lat="45.6333333" lon="15.0000000">
 <time>2013-09-13T12:14:31.892Z</time>
 <name>Rajhenav</name>
</wpt>
<wpt lat="45.6333333" lon="15.0166667">
 <time>2013-09-13T12:14:31.892Z</time>
 <name>Podstene</name>
</wpt>
<wpt lat="45.6333333" lon="15.0333334">
 <time>2013-09-13T12:14:31.892Z</time>
 <name>Kopa</name>
</wpt>
<wpt lat="45.6333333" lon="15.0966667">
 <time>2013-09-13T12:14:31.892Z</time>
 <name>Mirna Gora</name>
</wpt>
<wpt lat="45.6333333" lon="15.1666667">
 <time>2013-09-13T12:14:31.892Z</time>
 <name>Kot pri Semicu</name>
</wpt>
<wpt lat="45.6333333" lon="15.1833334">
 <time>2013-09-13T12:14:31.892Z</time>
 <name>Lipovec</name>
</wpt>
<wpt lat="45.6333333" lon="15.2000000">
 <time>2013-09-13T12:14:31.892Z</time>
 <name>Vinji Vrh pri Semicu</name>
</wpt>
<wpt lat="45.6333333" lon="15.2000000">
 <time>2013-09-13T12:14:31.892Z</time>
 <name>Brezje pri Vinjem Vrhu</name>
</wpt>
<wpt lat="45.6333333" lon="15.2166667">
 <time>2013-09-13T12:14:31.892Z</time>
 <name>Praprot</name>
</wpt>
<wpt lat="45.6333333" lon="15.2666667">
 <time>2013-09-13T12:14:31.892Z</time>
 <name>Dolnje Dobravice</name>
</wpt>
<wpt lat="45.6333333" lon="15.3000000">
 <time>2013-09-13T12:14:31.892Z</time>
 <name>Primostek</name>
</wpt>
<wpt lat="45.6333333" lon="15.3166667">
 <time>2013-09-13T12:14:31.892Z</time>
 <name>Krizevska Vas</name>
</wpt>
<wpt lat="45.6336111" lon="14.2591667">
 <time>2013-09-13T12:14:31.892Z</time>
 <name>Bac</name>
</wpt>
<wpt lat="45.6350000" lon="14.6569445">
 <time>2013-09-13T12:14:31.892Z</time>
 <name>Srednja Vas pri Dragi</name>
</wpt>
<wpt lat="0.0000000" lon="0.0000000">
 <time>1992-01-02T00:00:00.000Z</time>
 <name></name>
</wpt>
<wpt lat="0.0000000" lon="0.0000000">
 <time>1992-01-02T00:00:00.000Z</time>
 <name></name>
</wpt>
<wpt lat="45.6388889" lon="14.8902778">
 <time>2013-09-13T12:14:31.892Z</time>
 <name>Salka Vas</name>
</wpt>
<wpt lat="45.6400000" lon="13.9269445">
 <time>2013-09-13T12:14:31.892Z</time>
 <name>Veliko Gradisce</name>
</wpt>
<wpt lat="45.6400000" lon="14.0572223">
 <time>2013-09-13T12:14:31.892Z</time>
 <name>Barka</name>
</wpt>
<wpt lat="45.6413889" lon="14.2263889">
 <time>2013-09-13T12:14:31.892Z</time>
 <name>Zagorje</name>
</wpt>
<wpt lat="0.0000000" lon="0.0000000">
 <time>1992-01-02T00:00:00.000Z</time>
 <name></name>
</wpt>
<wpt lat="45.6433333" lon="14.8633334">
 <time>2013-09-13T12:14:31.892Z</time>
 <name>Kocevje</name>
</wpt>
<wpt lat="45.6441667" lon="13.9666667">
 <time>2013-09-13T12:14:31.892Z</time>
 <name>Kacice-Pared</name>
</wpt>
<wpt lat="45.6469444" lon="14.3744445">
 <time>2013-09-13T12:14:31.892Z</time>
 <name>Pivka Planina</name>
</wpt>
<wpt lat="45.6472222" lon="14.1861111">
 <time>2013-09-13T12:14:31.892Z</time>
 <name>Narin</name>
</wpt>
<wpt lat="45.6483333" lon="14.0219445">
 <time>2013-09-13T12:14:31.892Z</time>
 <name>Zavrhnek</name>
</wpt>
<wpt lat="0.0000000" lon="0.0000000">
 <time>1992-01-02T00:00:00.000Z</time>
 <name></name>
</wpt>
<wpt lat="45.6488889" lon="15.0300000">
 <time>2013-09-13T12:14:31.892Z</time>
 <name>Kocevski Rog</name>
</wpt>
<wpt lat="45.6497222" lon="14.6427778">
 <time>2013-09-13T12:14:31.892Z</time>
 <name>Podpreska</name>
</wpt>
<wpt lat="0.0000000" lon="0.0000000">
 <time>1992-01-02T00:00:00.000Z</time>
 <name></name>
</wpt>
<wpt lat="0.0000003" lon="45.6499996">
 <ele>0.000000</ele>
 <time>1900-01-12T21:36:00.000Z</time>
 <name>Kokas [SLOVENIA]</name>
 <cmt>2933223</cmt>
 <desc>2933223</desc>
</wpt>
<wpt lat="45.6500000" lon="14.0166667">
 <time>2013-09-13T12:14:31.892Z</time>
 <name>Skoflje</name>
</wpt>
<wpt lat="45.6500000" lon="14.0166667">
 <time>2013-09-13T12:14:31.892Z</time>
 <name>Reka</name>
</wpt>
<wpt lat="45.6500000" lon="14.0500000">
 <time>2013-09-13T12:14:31.892Z</time>
 <name>Vremski Britof</name>
</wpt>
<wpt lat="45.6500000" lon="14.0833334">
 <time>2013-09-13T12:14:31.892Z</time>
 <name>Buje</name>
</wpt>
<wpt lat="45.6500000" lon="14.1333334">
 <time>2013-09-13T12:14:31.892Z</time>
 <name>Stara Susica</name>
</wpt>
<wpt lat="45.6500000" lon="14.1333334">
 <time>2013-09-13T12:14:31.892Z</time>
 <name>Gornja Kosana</name>
</wpt>
<wpt lat="45.6500000" lon="14.1333334">
 <time>2013-09-13T12:14:31.892Z</time>
 <name>Dolnja Kosana</name>
</wpt>
<wpt lat="45.6500000" lon="14.1500000">
 <time>2013-09-13T12:14:31.892Z</time>
 <name>Nova Susica</name>
</wpt>
<wpt lat="45.6500000" lon="14.1666667">
 <time>2013-09-13T12:14:31.892Z</time>
 <name>Mala Pristava</name>
</wpt>
<wpt lat="45.6500000" lon="14.1833334">
 <time>2013-09-13T12:14:31.892Z</time>
 <name>Velika Pristava</name>
</wpt>
<wpt lat="45.6500000" lon="14.2166667">
 <time>2013-09-13T12:14:31.892Z</time>
 <name>Drskovce</name>
</wpt>
<wpt lat="45.6500000" lon="14.6166667">
 <time>2013-09-13T12:14:31.892Z</time>
 <name>Brinoh</name>
</wpt>
<wpt lat="45.6500000" lon="14.6333334">
 <time>2013-09-13T12:14:31.892Z</time>
 <name>Lazec</name>
</wpt>
<wpt lat="45.6500000" lon="14.8500000">
 <time>2013-09-13T12:14:31.892Z</time>
 <name>Mahovnik</name>
</wpt>
<wpt lat="45.6500000" lon="14.8833334">
 <time>2013-09-13T12:14:31.892Z</time>
 <name>Dolga Vas</name>
</wpt>
<wpt lat="45.6500000" lon="15.1166667">
 <time>2013-09-13T12:14:31.892Z</time>
 <name>Brezje pri Roznem Dolu</name>
</wpt>
<wpt lat="45.6500000" lon="15.1333334">
 <time>2013-09-13T12:14:31.892Z</time>
 <name>Blatnik pri Crmosnjicah</name>
</wpt>
<wpt lat="45.6500000" lon="15.1500000">
 <time>2013-09-13T12:14:31.892Z</time>
 <name>Vrcice</name>
</wpt>
<wpt lat="45.6500000" lon="15.2666667">
 <time>2013-09-13T12:14:31.892Z</time>
 <name>Gornje Dobravice</name>
</wpt>
<wpt lat="45.6500000" lon="15.3666667">
 <time>2013-09-13T12:14:31.892Z</time>
 <name>Bozakovo</name>
</wpt>
<wpt lat="45.6502778" lon="14.5527778">
 <time>2013-09-13T12:14:31.892Z</time>
 <name>Babno Polje</name>
</wpt>
<wpt lat="0.0000000" lon="0.0000000">
 <time>1992-01-02T00:00:00.000Z</time>
 <name></name>
</wpt>
<wpt lat="45.6519444" lon="13.9825000">
 <time>2013-09-13T12:14:31.892Z</time>
 <name>Dane pri Divaci</name>
</wpt>
<wpt lat="45.6522222" lon="14.7547223">
 <time>2013-09-13T12:14:31.892Z</time>
 <name>Grcarice</name>
</wpt>
<wpt lat="45.6525000" lon="15.1838889">
 <time>2013-09-13T12:14:31.892Z</time>
 <name>Semic</name>
</wpt>
<wpt lat="45.6533333" lon="15.3163889">
 <time>2013-09-13T12:14:31.892Z</time>
 <name>Metlika</name>
</wpt>
<wpt lat="45.6550000" lon="15.2327778">
 <time>2013-09-13T12:14:31.892Z</time>
 <name>Cresnjevec pri Semicu</name>
</wpt>
<wpt lat="45.6580556" lon="15.2597223">
 <time>2013-09-13T12:14:31.892Z</time>
 <name>Krvoski Vrh</name>
</wpt>
<wpt lat="45.6586111" lon="14.3797223">
 <time>2013-09-13T12:14:31.892Z</time>
 <name>Leskov Vrh</name>
</wpt>
<wpt lat="45.6594444" lon="13.9250000">
 <time>2013-09-13T12:14:31.892Z</time>
 <name>Preloze</name>
</wpt>
<wpt lat="45.6597222" lon="14.8872223">
 <time>2013-09-13T12:14:31.892Z</time>
 <name>Zeljne</name>
</wpt>
<wpt lat="0.0000000" lon="0.0000000">
 <time>1992-01-02T00:00:00.000Z</time>
 <name></name>
</wpt>
<wpt lat="45.6619444" lon="13.9891667">
 <time>2013-09-13T12:14:31.892Z</time>
 <name>Skocjan</name>
</wpt>
<wpt lat="45.6630556" lon="14.2177778">
 <time>2013-09-13T12:14:31.892Z</time>
 <name>Parje</name>
</wpt>
<wpt lat="45.6641667" lon="15.1086111">
 <time>2013-09-13T12:14:31.892Z</time>
 <name>Srednja Vas</name>
</wpt>
<wpt lat="45.6655556" lon="13.9216667">
 <time>2013-09-13T12:14:31.892Z</time>
 <name>Lokev</name>
</wpt>
<wpt lat="45.6658333" lon="14.2944445">
 <time>2013-09-13T12:14:31.892Z</time>
 <name>Jurisce</name>
</wpt>
<wpt lat="45.6666667" lon="13.5833334">
 <time>2013-09-13T12:14:31.892Z</time>
 <name>Trieste. Gulf of</name>
</wpt>
<wpt lat="45.6666667" lon="13.8833334">
 <time>2013-09-13T12:14:31.892Z</time>
 <name>Lipica</name>
</wpt>
<wpt lat="45.6666667" lon="14.0166667">
 <time>2013-09-13T12:14:31.892Z</time>
 <name>Skocjan</name>
</wpt>
<wpt lat="45.6666667" lon="14.0166667">
 <time>2013-09-13T12:14:31.892Z</time>
 <name>Gorice pri Famljah</name>
</wpt>
<wpt lat="45.6666667" lon="14.0166667">
 <time>2013-09-13T12:14:31.892Z</time>
 <name>Famlje</name>
</wpt>
<wpt lat="45.6666667" lon="14.0333334">
 <time>2013-09-13T12:14:31.892Z</time>
 <name>Dolnje Vreme</name>
</wpt>
<wpt lat="0.0000000" lon="0.0000000">
 <time>1992-01-02T00:00:00.000Z</time>
 <name></name>
</wpt>
<wpt lat="45.6666667" lon="14.0500000">
 <time>2013-09-13T12:14:31.892Z</time>
 <name>Gornje Vreme</name>
</wpt>
<wpt lat="45.6666667" lon="14.0833334">
 <time>2013-09-13T12:14:31.892Z</time>
 <name>Gornje Lezece</name>
</wpt>
<wpt lat="45.6666667" lon="14.1333334">
 <time>2013-09-13T12:14:31.892Z</time>
 <name>Neverke</name>
</wpt>
<wpt lat="45.6666667" lon="14.1666667">
 <time>2013-09-13T12:14:31.892Z</time>
 <name>Kal</name>
</wpt>
<wpt lat="45.6666667" lon="14.4166667">
 <time>2013-09-13T12:14:31.892Z</time>
 <name>Bicka Gora</name>
</wpt>
<wpt lat="45.6666667" lon="14.5166667">
 <time>2013-09-13T12:14:31.892Z</time>
 <name>Babna Polica</name>
</wpt>
<wpt lat="45.6666667" lon="14.5666667">
 <time>2013-09-13T12:14:31.892Z</time>
 <name>Petelinov Vrh</name>
</wpt>
<wpt lat="45.6666667" lon="14.6833334">
 <time>2013-09-13T12:14:31.892Z</time>
 <name>Glazuta</name>
</wpt>
<wpt lat="45.6666667" lon="14.7500000">
 <time>2013-09-13T12:14:31.892Z</time>
 <name>Grcarske Ravne</name>
</wpt>
<wpt lat="45.6666667" lon="14.8333334">
 <time>2013-09-13T12:14:31.892Z</time>
 <name>Stara Cerkev</name>
</wpt>
<wpt lat="45.6666667" lon="14.8333334">
 <time>2013-09-13T12:14:31.892Z</time>
 <name>Slovenska Vas</name>
</wpt>
<wpt lat="45.6666667" lon="14.8500000">
 <time>2013-09-13T12:14:31.892Z</time>
 <name>Mlaka pri Kocevju</name>
</wpt>
<wpt lat="45.6666667" lon="14.8666667">
 <time>2013-09-13T12:14:31.892Z</time>
 <name>Klinja Vas</name>
</wpt>
<wpt lat="45.6666667" lon="15.2000000">
 <time>2013-09-13T12:14:31.892Z</time>
 <name>Kal</name>
</wpt>
<wpt lat="45.6666667" lon="15.2666667">
 <time>2013-09-13T12:14:31.892Z</time>
 <name>Gornja Lokvica</name>
</wpt>
<wpt lat="45.6666667" lon="15.2666667">
 <time>2013-09-13T12:14:31.892Z</time>
 <name>Dolnja Lokvica</name>
</wpt>
<wpt lat="0.0000000" lon="0.0000000">
 <time>1992-01-02T00:00:00.000Z</time>
 <name></name>
</wpt>
<wpt lat="45.6666667" lon="15.3500000">
 <time>2013-09-13T12:14:31.892Z</time>
 <name>Rosalnice</name>
</wpt>
<wpt lat="45.6666667" lon="15.3666667">
 <time>2013-09-13T12:14:31.892Z</time>
 <name>Drasici</name>
</wpt>
<wpt lat="45.6700000" lon="14.8619445">
 <time>2013-09-13T12:14:31.892Z</time>
 <name>Brunvirt</name>
</wpt>
<wpt lat="45.6711111" lon="14.1933334">
 <time>2013-09-13T12:14:31.892Z</time>
 <name>Pivka</name>
</wpt>
<wpt lat="45.6725000" lon="15.2152778">
 <time>2013-09-13T12:14:31.892Z</time>
 <name>Strekljevec</name>
</wpt>
<wpt lat="45.6730556" lon="14.7633334">
 <time>2013-09-13T12:14:31.892Z</time>
 <name>Jelendol</name>
</wpt>
<wpt lat="45.6755556" lon="15.0050000">
 <time>2013-09-13T12:14:31.892Z</time>
 <name>Zaga Bog</name>
</wpt>
<wpt lat="45.6769444" lon="14.6563889">
 <time>2013-09-13T12:14:31.892Z</time>
 <name>Debeli Vrh</name>
</wpt>
<wpt lat="45.6775000" lon="13.9800000">
 <time>2013-09-13T12:14:31.892Z</time>
 <name>Dolnje Lezece</name>
</wpt>
<wpt lat="45.6775000" lon="14.2041667">
 <time>2013-09-13T12:14:31.892Z</time>
 <name>Radohova Vas</name>
</wpt>
<wpt lat="45.6780556" lon="14.2597223">
 <time>2013-09-13T12:14:31.892Z</time>
 <name>Palcje</name>
</wpt>
<wpt lat="45.6797222" lon="14.9230556">
 <time>2013-09-13T12:14:31.892Z</time>
 <name>Kocevska Mala Gora</name>
</wpt>
<wpt lat="45.6797222" lon="15.2138889">
 <time>2013-09-13T12:14:31.892Z</time>
 <name>Osojnik</name>
</wpt>
<wpt lat="45.6802778" lon="14.2244445">
 <time>2013-09-13T12:14:31.892Z</time>
 <name>Trnje</name>
</wpt>
<wpt lat="45.6808333" lon="15.1447223">
 <time>2013-09-13T12:14:31.892Z</time>
 <name>Rozni Dol</name>
</wpt>
<wpt lat="0.0000000" lon="0.0000000">
 <time>1992-01-02T00:00:00.000Z</time>
 <name></name>
</wpt>
<wpt lat="45.6833333" lon="14.0000000">
 <time>2013-09-13T12:14:31.892Z</time>
 <name>Skocjanske Jame</name>
</wpt>
<wpt lat="45.6833333" lon="14.2166667">
 <time>2013-09-13T12:14:31.892Z</time>
 <name>Klenik</name>
</wpt>
<wpt lat="45.6833333" lon="14.5166667">
 <time>2013-09-13T12:14:31.892Z</time>
 <name>Dolenje Poljane</name>
</wpt>
<wpt lat="45.6833333" lon="14.5394445">
 <time>2013-09-13T12:14:31.892Z</time>
 <name>Gornje Poljane</name>
</wpt>
<wpt lat="45.6833333" lon="14.6000000">
 <time>2013-09-13T12:14:31.892Z</time>
 <name>Travnik</name>
</wpt>
<wpt lat="45.6833333" lon="14.8166667">
 <time>2013-09-13T12:14:31.892Z</time>
 <name>Nove Lozine</name>
</wpt>
<wpt lat="45.6833333" lon="14.8166667">
 <time>2013-09-13T12:14:31.892Z</time>
 <name>Dolnje Lozine</name>
</wpt>
<wpt lat="45.6833333" lon="14.8333334">
 <time>2013-09-13T12:14:31.892Z</time>
 <name>Koblarji</name>
</wpt>
<wpt lat="45.6833333" lon="14.9166667">
 <time>2013-09-13T12:14:31.892Z</time>
 <name>Stari Breg</name>
</wpt>
<wpt lat="45.6833333" lon="14.9500000">
 <time>2013-09-13T12:14:31.892Z</time>
 <name>Breg pri Kocevju</name>
</wpt>
<wpt lat="45.6833333" lon="15.1000000">
 <time>2013-09-13T12:14:31.892Z</time>
 <name>Komarna Vas</name>
</wpt>
<wpt lat="45.6833333" lon="15.1000000">
 <time>2013-09-13T12:14:31.892Z</time>
 <name>Crmosnjice</name>
</wpt>
<wpt lat="45.6833333" lon="15.1666667">
 <time>2013-09-13T12:14:31.892Z</time>
 <name>Pribisje</name>
</wpt>
<wpt lat="45.6833333" lon="15.2166667">
 <time>2013-09-13T12:14:31.892Z</time>
 <name>Brezova Reber</name>
</wpt>
<wpt lat="45.6833333" lon="15.2833334">
 <time>2013-09-13T12:14:31.892Z</time>
 <name>Businja Vas</name>
</wpt>
<wpt lat="45.6833333" lon="15.3500000">
 <time>2013-09-13T12:14:31.892Z</time>
 <name>Radovica</name>
</wpt>
<wpt lat="45.6833333" lon="15.3500000">
 <time>2013-09-13T12:14:31.892Z</time>
 <name>Boldraz</name>
</wpt>
<wpt lat="0.0000000" lon="0.0000000">
 <time>1992-01-02T00:00:00.000Z</time>
 <name></name>
</wpt>
<wpt lat="0.0000000" lon="0.0000000">
 <time>1992-01-02T00:00:00.000Z</time>
 <name></name>
</wpt>
<wpt lat="45.6850000" lon="14.3525000">
 <time>2013-09-13T12:14:31.892Z</time>
 <name>Smreznica</name>
</wpt>
<wpt lat="45.6861111" lon="14.4905556">
 <time>2013-09-13T12:14:31.892Z</time>
 <name>Podgora</name>
</wpt>
<wpt lat="45.6875000" lon="14.4761111">
 <time>2013-09-13T12:14:31.892Z</time>
 <name>Kozarisce</name>
</wpt>
<wpt lat="45.6877778" lon="13.9716667">
 <time>2013-09-13T12:14:31.892Z</time>
 <name>Divaca</name>
</wpt>
<wpt lat="45.6883333" lon="14.0625000">
 <time>2013-09-13T12:14:31.892Z</time>
 <name>Vremscica</name>
</wpt>
<wpt lat="45.6883333" lon="14.7083334">
 <time>2013-09-13T12:14:31.892Z</time>
 <name>Velika Gora</name>
</wpt>
<wpt lat="45.6894444" lon="13.8427778">
 <time>2013-09-13T12:14:31.892Z</time>
 <name>Orlek</name>
</wpt>
<wpt lat="45.6897222" lon="14.5813889">
 <time>2013-09-13T12:14:31.892Z</time>
 <name>Bela Voda</name>
</wpt>
<wpt lat="45.6905556" lon="15.3511111">
 <time>2013-09-13T12:14:31.892Z</time>
 <name>Dojutrovica</name>
</wpt>
<wpt lat="45.6916667" lon="13.9447223">
 <time>2013-09-13T12:14:31.892Z</time>
 <name>Gore</name>
</wpt>
<wpt lat="45.6922222" lon="14.8708334">
 <time>2013-09-13T12:14:31.892Z</time>
 <name>Mala Gora</name>
</wpt>
<wpt lat="45.6933333" lon="14.6680556">
 <time>2013-09-13T12:14:31.892Z</time>
 <name>Jelenov Zleb</name>
</wpt>
<wpt lat="45.6933333" lon="14.8027778">
 <time>2013-09-13T12:14:31.892Z</time>
 <name>Gornje Lozine</name>
</wpt>
<wpt lat="45.6936111" lon="14.1975000">
 <time>2013-09-13T12:14:31.892Z</time>
 <name>Petelinje</name>
</wpt>
<wpt lat="45.6947222" lon="13.9119445">
 <time>2013-09-13T12:14:31.892Z</time>
 <name>Plasivica</name>
</wpt>
<wpt lat="45.6958333" lon="14.5963889">
 <time>2013-09-13T12:14:31.892Z</time>
 <name>Hrib-Loski Potok</name>
</wpt>
<wpt lat="45.6983333" lon="13.9363889">
 <time>2013-09-13T12:14:31.892Z</time>
 <name>Povir</name>
</wpt>
<wpt lat="45.6986111" lon="14.3966667">
 <time>2013-09-13T12:14:31.892Z</time>
 <name>Javorje</name>
</wpt>
<wpt lat="45.7000000" lon="14.1166667">
 <time>2013-09-13T12:14:31.892Z</time>
 <name>Volce</name>
</wpt>
<wpt lat="45.7000000" lon="14.3833334">
 <time>2013-09-13T12:14:31.892Z</time>
 <name>Kozlorka</name>
</wpt>
<wpt lat="45.7000000" lon="14.4833334">
 <time>2013-09-13T12:14:31.892Z</time>
 <name>Visevek</name>
</wpt>
<wpt lat="45.7000000" lon="14.4833334">
 <time>2013-09-13T12:14:31.892Z</time>
 <name>Pudob</name>
</wpt>
<wpt lat="45.7000000" lon="14.4833334">
 <time>2013-09-13T12:14:31.892Z</time>
 <name>Iga Vas</name>
</wpt>
<wpt lat="45.7000000" lon="14.5000000">
 <time>2013-09-13T12:14:31.892Z</time>
 <name>Vrhnika pri Lozu</name>
</wpt>
<wpt lat="45.7000000" lon="14.6000000">
 <time>2013-09-13T12:14:31.892Z</time>
 <name>Loski Potok</name>
</wpt>
<wpt lat="45.7000000" lon="14.7333334">
 <time>2013-09-13T12:14:31.892Z</time>
 <name>Zadolje</name>
</wpt>
<wpt lat="45.7000000" lon="14.7500000">
 <time>2013-09-13T12:14:31.892Z</time>
 <name>Dolenja Vas</name>
</wpt>
<wpt lat="45.7000000" lon="14.7500000">
 <time>2013-09-13T12:14:31.892Z</time>
 <name>Blate</name>
</wpt>
<wpt lat="45.7000000" lon="14.7666667">
 <time>2013-09-13T12:14:31.892Z</time>
 <name>Rakitnica</name>
</wpt>
<wpt lat="45.7000000" lon="14.8500000">
 <time>2013-09-13T12:14:31.892Z</time>
 <name>Mala Gora</name>
</wpt>
<wpt lat="45.7000000" lon="14.9833334">
 <time>2013-09-13T12:14:31.892Z</time>
 <name>Breznov Vodnjak</name>
</wpt>
<wpt lat="45.7000000" lon="15.0833334">
 <time>2013-09-13T12:14:31.892Z</time>
 <name>Nova Gora</name>
</wpt>
<wpt lat="45.7000000" lon="15.2166667">
 <time>2013-09-13T12:14:31.892Z</time>
 <name>Maline pri Strekljevcu</name>
</wpt>
<wpt lat="45.7000000" lon="15.2666667">
 <time>2013-09-13T12:14:31.892Z</time>
 <name>Drage</name>
</wpt>
<wpt lat="45.7000000" lon="15.3333334">
 <time>2013-09-13T12:14:31.892Z</time>
 <name>Bojanja Vas</name>
</wpt>
<wpt lat="45.7002778" lon="13.9000000">
 <time>2013-09-13T12:14:31.892Z</time>
 <name>Merce</name>
</wpt>
<wpt lat="45.7005556" lon="14.3288889">
 <time>2013-09-13T12:14:31.892Z</time>
 <name>Temna Luza</name>
</wpt>
<wpt lat="45.7013889" lon="15.2555556">
 <time>2013-09-13T12:14:31.892Z</time>
 <name>Dule</name>
</wpt>
<wpt lat="45.7030556" lon="14.5927778">
 <time>2013-09-13T12:14:31.892Z</time>
 <name>Retje</name>
</wpt>
<wpt lat="45.7050000" lon="13.9908334">
 <time>2013-09-13T12:14:31.892Z</time>
 <name>Cebulovica</name>
</wpt>
<wpt lat="45.7052778" lon="14.4677778">
 <time>2013-09-13T12:14:31.892Z</time>
 <name>Nadlesk</name>
</wpt>
<wpt lat="0.0000000" lon="0.0000000">
 <time>1992-01-02T00:00:00.000Z</time>
 <name></name>
</wpt>
<wpt lat="45.7080556" lon="13.9180556">
 <time>2013-09-13T12:14:31.892Z</time>
 <name>Zirje</name>
</wpt>
<wpt lat="45.7083333" lon="14.7550000">
 <time>2013-09-13T12:14:31.892Z</time>
 <name>Lipovec</name>
</wpt>
<wpt lat="45.7086111" lon="14.8913889">
 <time>2013-09-13T12:14:31.892Z</time>
 <name>Klec</name>
</wpt>
<wpt lat="45.7088889" lon="15.2272223">
 <time>2013-09-13T12:14:31.892Z</time>
 <name>Jugorje pri Metliki</name>
</wpt>
<wpt lat="45.7097222" lon="13.8700000">
 <time>2013-09-13T12:14:31.908Z</time>
 <name>Sezana</name>
</wpt>
<wpt lat="45.7127778" lon="14.1805556">
 <time>2013-09-13T12:14:31.908Z</time>
 <name>Slavina</name>
</wpt>
<wpt lat="45.7130556" lon="15.0733334">
 <time>2013-09-13T12:14:31.908Z</time>
 <name>Obcice</name>
</wpt>
<wpt lat="45.7144444" lon="13.9452778">
 <time>2013-09-13T12:14:31.908Z</time>
 <name>Brestovica pri Povirju</name>
</wpt>
<wpt lat="45.7155556" lon="14.3202778">
 <time>2013-09-13T12:14:31.908Z</time>
 <name>Japlenci</name>
</wpt>
<wpt lat="45.7161111" lon="13.8808334">
 <time>2013-09-13T12:14:31.908Z</time>
 <name>Dane pri Sezani</name>
</wpt>
<wpt lat="45.7161111" lon="15.1225000">
 <time>2013-09-13T12:14:31.908Z</time>
 <name>Laze</name>
</wpt>
<wpt lat="0.0000003" lon="45.7166663">
 <ele>0.000000</ele>
 <time>1900-01-12T19:36:00.000Z</time>
 <name>Medvedjak [SLOVENIA]</name>
 <cmt>2933223</cmt>
 <desc>2933223</desc>
</wpt>
<wpt lat="45.7166667" lon="13.8333334">
 <time>2013-09-13T12:14:31.908Z</time>
 <name>Fernetici</name>
</wpt>
<wpt lat="45.7166667" lon="14.0166667">
 <time>2013-09-13T12:14:31.908Z</time>
 <name>Gaberce</name>
</wpt>
<wpt lat="45.7166667" lon="14.0333334">
 <time>2013-09-13T12:14:31.908Z</time>
 <name>Potoce</name>
</wpt>
<wpt lat="45.7166667" lon="14.1833334">
 <time>2013-09-13T12:14:31.908Z</time>
 <name>Koce</name>
</wpt>
<wpt lat="45.7166667" lon="14.2000000">
 <time>2013-09-13T12:14:31.908Z</time>
 <name>Selce</name>
</wpt>
<wpt lat="45.7166667" lon="14.2333334">
 <time>2013-09-13T12:14:31.908Z</time>
 <name>Petelinsko Jezero</name>
</wpt>
<wpt lat="45.7166667" lon="14.4000000">
 <time>2013-09-13T12:14:31.908Z</time>
 <name>Laze pri Gorenjem Jezeru</name>
</wpt>
<wpt lat="45.7166667" lon="14.4166667">
 <time>2013-09-13T12:14:31.908Z</time>
 <name>Jezerski Potok</name>
</wpt>
<wpt lat="45.7166667" lon="14.4500000">
 <time>2013-09-13T12:14:31.908Z</time>
 <name>Dane</name>
</wpt>
<wpt lat="45.7166667" lon="14.4666667">
 <time>2013-09-13T12:14:31.908Z</time>
 <name>Stari Trg pri Lozu</name>
</wpt>
<wpt lat="45.7166667" lon="14.5000000">
 <time>2013-09-13T12:14:31.908Z</time>
 <name>Markovec</name>
</wpt>
<wpt lat="45.7166667" lon="14.5000000">
 <time>2013-09-13T12:14:31.908Z</time>
 <name>Knezja Njiva</name>
</wpt>
<wpt lat="45.7166667" lon="14.7500000">
 <time>2013-09-13T12:14:31.908Z</time>
 <name>Ribnica</name>
</wpt>
<wpt lat="45.7166667" lon="14.7500000">
 <time>2013-09-13T12:14:31.908Z</time>
 <name>Prigorica</name>
</wpt>
<wpt lat="45.7166667" lon="14.8000000">
 <time>2013-09-13T12:14:31.908Z</time>
 <name>Makose</name>
</wpt>
<wpt lat="45.7166667" lon="15.0166667">
 <time>2013-09-13T12:14:31.908Z</time>
 <name>Podstenice</name>
</wpt>
<wpt lat="45.7166667" lon="15.0833334">
 <time>2013-09-13T12:14:31.908Z</time>
 <name>Mali Rigelj</name>
</wpt>
<wpt lat="45.7166667" lon="15.1000000">
 <time>2013-09-13T12:14:31.908Z</time>
 <name>Verdun pri Ursnih Selah</name>
</wpt>
<wpt lat="45.7166667" lon="15.1000000">
 <time>2013-09-13T12:14:31.908Z</time>
 <name>Gorenje Susice</name>
</wpt>
<wpt lat="45.7166667" lon="15.2333334">
 <time>2013-09-13T12:14:31.908Z</time>
 <name>Sela pri Jugorju</name>
</wpt>
<wpt lat="45.7197222" lon="14.7613889">
 <time>2013-09-13T12:14:31.908Z</time>
 <name>Bistrica</name>
</wpt>
<wpt lat="45.7200000" lon="13.9855556">
 <time>2013-09-13T12:14:31.908Z</time>
 <name>Senadole</name>
</wpt>
<wpt lat="45.7208333" lon="13.9200000">
 <time>2013-09-13T12:14:31.908Z</time>
 <name>Sopada</name>
</wpt>
<wpt lat="45.7219444" lon="14.0430556">
 <time>2013-09-13T12:14:31.908Z</time>
 <name>Senozece</name>
</wpt>
<wpt lat="45.7238889" lon="14.5852778">
 <time>2013-09-13T12:14:31.908Z</time>
 <name>Mali Log</name>
</wpt>
<wpt lat="45.7241667" lon="14.3988889">
 <time>2013-09-13T12:14:31.908Z</time>
 <name>Gorenje Jezero</name>
</wpt>
<wpt lat="45.7250000" lon="14.9205556">
 <time>2013-09-13T12:14:31.908Z</time>
 <name>Stari Log</name>
</wpt>
<wpt lat="45.7258333" lon="13.8805556">
 <time>2013-09-13T12:14:31.908Z</time>
 <name>Smarje pri Sezani</name>
</wpt>
<wpt lat="45.7283333" lon="14.1952778">
 <time>2013-09-13T12:14:31.908Z</time>
 <name>Zeje</name>
</wpt>
<wpt lat="45.7291667" lon="13.8236111">
 <time>2013-09-13T12:14:31.908Z</time>
 <name>Vrnovlje</name>
</wpt>
<wpt lat="45.7291667" lon="14.8405556">
 <time>2013-09-13T12:14:31.908Z</time>
 <name>Vrbovec</name>
</wpt>
<wpt lat="45.7294444" lon="14.2194445">
 <time>2013-09-13T12:14:31.908Z</time>
 <name>Bilje Konjarna</name>
</wpt>
<wpt lat="45.7311111" lon="13.8075000">
 <time>2013-09-13T12:14:31.908Z</time>
 <name>Voglje</name>
</wpt>
<wpt lat="45.7333333" lon="13.9833334">
 <time>2013-09-13T12:14:31.908Z</time>
 <name>Vrhovlje</name>
</wpt>
<wpt lat="45.7333333" lon="14.1333334">
 <time>2013-09-13T12:14:31.908Z</time>
 <name>Rakulik</name>
</wpt>
<wpt lat="45.7333333" lon="14.2833334">
 <time>2013-09-13T12:14:31.908Z</time>
 <name>Sveta Trojica</name>
</wpt>
<wpt lat="45.7333333" lon="14.3833334">
 <time>2013-09-13T12:14:31.908Z</time>
 <name>Otok</name>
</wpt>
<wpt lat="45.7333333" lon="14.4333334">
 <time>2013-09-13T12:14:31.908Z</time>
 <name>Lipsenj</name>
</wpt>
<wpt lat="45.7333333" lon="14.4666667">
 <time>2013-09-13T12:14:31.908Z</time>
 <name>Podloz</name>
</wpt>
<wpt lat="45.7333333" lon="14.4833334">
 <time>2013-09-13T12:14:31.908Z</time>
 <name>Loz</name>
</wpt>
<wpt lat="45.7333333" lon="14.4833334">
 <time>2013-09-13T12:14:31.908Z</time>
 <name>Krizna Jama</name>
</wpt>
<wpt lat="45.7333333" lon="14.4833334">
 <time>2013-09-13T12:14:31.908Z</time>
 <name>Krizna Gora</name>
</wpt>
<wpt lat="45.7333333" lon="14.5166667">
 <time>2013-09-13T12:14:31.908Z</time>
 <name>Veliki Zupanscek</name>
</wpt>
<wpt lat="45.7333333" lon="14.7000000">
 <time>2013-09-13T12:14:31.908Z</time>
 <name>Dane</name>
</wpt>
<wpt lat="45.7333333" lon="14.7500000">
 <time>2013-09-13T12:14:31.908Z</time>
 <name>Nemska Vas</name>
</wpt>
<wpt lat="45.7333333" lon="14.7500000">
 <time>2013-09-13T12:14:31.908Z</time>
 <name>Gorica Vas</name>
</wpt>
<wpt lat="45.7333333" lon="14.7666667">
 <time>2013-09-13T12:14:31.908Z</time>
 <name>Otavice</name>
</wpt>
<wpt lat="45.7333333" lon="14.8166667">
 <time>2013-09-13T12:14:31.908Z</time>
 <name>Crni Vrh</name>
</wpt>
<wpt lat="45.7333333" lon="14.8500000">
 <time>2013-09-13T12:14:31.908Z</time>
 <name>Polom</name>
</wpt>
<wpt lat="45.7333333" lon="14.9833334">
 <time>2013-09-13T12:14:31.908Z</time>
 <name>Kunce</name>
</wpt>
<wpt lat="45.7333333" lon="15.0666667">
 <time>2013-09-13T12:14:31.908Z</time>
 <name>Veliki Rigelj</name>
</wpt>
<wpt lat="45.7333333" lon="15.0833334">
 <time>2013-09-13T12:14:31.908Z</time>
 <name>Dolenje Susice</name>
</wpt>
<wpt lat="45.7333333" lon="15.1333334">
 <time>2013-09-13T12:14:31.908Z</time>
 <name>Ursna Sela</name>
</wpt>
<wpt lat="45.7333333" lon="15.1666667">
 <time>2013-09-13T12:14:31.908Z</time>
 <name>Mihovec</name>
</wpt>
<wpt lat="45.7333333" lon="15.2000000">
 <time>2013-09-13T12:14:31.908Z</time>
 <name>Podgrad</name>
</wpt>
<wpt lat="45.7333333" lon="15.2333334">
 <time>2013-09-13T12:14:31.908Z</time>
 <name>Veliki Cerovec</name>
</wpt>
<wpt lat="45.7333333" lon="15.2666667">
 <time>2013-09-13T12:14:31.908Z</time>
 <name>Oklinak</name>
</wpt>
<wpt lat="0.0000000" lon="0.0000000">
 <time>1992-01-02T00:00:00.000Z</time>
 <name></name>
</wpt>
<wpt lat="45.7347222" lon="14.0152778">
 <time>2013-09-13T12:14:31.908Z</time>
 <name>Dolenja Vas</name>
</wpt>
<wpt lat="45.7352778" lon="14.1738889">
 <time>2013-09-13T12:14:31.908Z</time>
 <name>Prestranek</name>
</wpt>
<wpt lat="45.7363889" lon="14.2866667">
 <time>2013-09-13T12:14:31.908Z</time>
 <name>Javorniki</name>
</wpt>
<wpt lat="45.7369444" lon="14.1422223">
 <time>2013-09-13T12:14:31.908Z</time>
 <name>Crmelice</name>
</wpt>
<wpt lat="45.7375000" lon="14.0733334">
 <time>2013-09-13T12:14:31.908Z</time>
 <name>Laze</name>
</wpt>
<wpt lat="45.7377778" lon="13.8830556">
 <time>2013-09-13T12:14:31.908Z</time>
 <name>Filipcje Brdo</name>
</wpt>
<wpt lat="45.7386111" lon="13.9297223">
 <time>2013-09-13T12:14:31.908Z</time>
 <name>Storje</name>
</wpt>
<wpt lat="45.7397222" lon="14.7288889">
 <time>2013-09-13T12:14:31.908Z</time>
 <name>Ribnica</name>
</wpt>
<wpt lat="45.7411111" lon="15.0416667">
 <time>2013-09-13T12:14:31.908Z</time>
 <name>Podturn pri Dolenjskih Toplicah</name>
</wpt>
<wpt lat="45.7422222" lon="14.1919445">
 <time>2013-09-13T12:14:31.908Z</time>
 <name>Matenja Vas</name>
</wpt>
<wpt lat="45.7433333" lon="14.8238889">
 <time>2013-09-13T12:14:31.908Z</time>
 <name>Kuka Vas</name>
</wpt>
<wpt lat="45.7436111" lon="13.8375000">
 <time>2013-09-13T12:14:31.908Z</time>
 <name>Kreplje</name>
</wpt>
<wpt lat="45.7438889" lon="13.8655556">
 <time>2013-09-13T12:14:31.908Z</time>
 <name>Kriz</name>
</wpt>
<wpt lat="45.7438889" lon="14.5236111">
 <time>2013-09-13T12:14:31.908Z</time>
 <name>Metulje</name>
</wpt>
<wpt lat="45.7438889" lon="14.7488889">
 <time>2013-09-13T12:14:31.908Z</time>
 <name>Ribnica</name>
</wpt>
<wpt lat="45.7450000" lon="14.1141667">
 <time>2013-09-13T12:14:31.908Z</time>
 <name>Sajevce</name>
</wpt>
<wpt lat="45.7452778" lon="13.8944445">
 <time>2013-09-13T12:14:31.908Z</time>
 <name>Grahovo Brdo</name>
</wpt>
<wpt lat="45.7458333" lon="14.3655556">
 <time>2013-09-13T12:14:31.908Z</time>
 <name>Cerknisko Jezero</name>
</wpt>
<wpt lat="0.0000000" lon="0.0000000">
 <time>1992-01-02T00:00:00.000Z</time>
 <name></name>
</wpt>
<wpt lat="0.0000003" lon="45.7499996">
 <ele>0.000000</ele>
 <time>1900-01-12T18:48:00.000Z</time>
 <name>Volnik [SLOVENIA]</name>
 <cmt>2933223</cmt>
 <desc>2933223</desc>
</wpt>
<wpt lat="45.7500000" lon="14.1000000">
 <time>2013-09-13T12:14:31.908Z</time>
 <name>Slavinje</name>
</wpt>
<wpt lat="45.7500000" lon="14.1500000">
 <time>2013-09-13T12:14:31.908Z</time>
 <name>Orehek</name>
</wpt>
<wpt lat="45.7500000" lon="14.1833334">
 <time>2013-09-13T12:14:31.908Z</time>
 <name>Grobisce</name>
</wpt>
<wpt lat="45.7500000" lon="14.2000000">
 <time>2013-09-13T12:14:31.908Z</time>
 <name>Rakitnik</name>
</wpt>
<wpt lat="45.7500000" lon="14.3500000">
 <time>2013-09-13T12:14:31.908Z</time>
 <name>Cela</name>
</wpt>
<wpt lat="45.7500000" lon="14.3666667">
 <time>2013-09-13T12:14:31.908Z</time>
 <name>Cerkniscica</name>
</wpt>
<wpt lat="45.7500000" lon="14.4666667">
 <time>2013-09-13T12:14:31.908Z</time>
 <name>Blocice</name>
</wpt>
<wpt lat="45.7500000" lon="14.5333334">
 <time>2013-09-13T12:14:31.908Z</time>
 <name>Topol</name>
</wpt>
<wpt lat="45.7500000" lon="14.5500000">
 <time>2013-09-13T12:14:31.908Z</time>
 <name>Ravne na Blokah</name>
</wpt>
<wpt lat="45.7500000" lon="14.6666667">
 <time>2013-09-13T12:14:31.908Z</time>
 <name>Lipovsica</name>
</wpt>
<wpt lat="45.7500000" lon="14.6833334">
 <time>2013-09-13T12:14:31.908Z</time>
 <name>Kot pri Ribnici</name>
</wpt>
<wpt lat="45.7500000" lon="14.7000000">
 <time>2013-09-13T12:14:31.908Z</time>
 <name>Jurjevica</name>
</wpt>
<wpt lat="45.7500000" lon="14.7166667">
 <time>2013-09-13T12:14:31.908Z</time>
 <name>Gorenja Vas</name>
</wpt>
<wpt lat="45.7500000" lon="14.8500000">
 <time>2013-09-13T12:14:31.908Z</time>
 <name>Sec</name>
</wpt>
<wpt lat="45.7500000" lon="14.9666667">
 <time>2013-09-13T12:14:31.908Z</time>
 <name>Komolec</name>
</wpt>
<wpt lat="45.7500000" lon="14.9833334">
 <time>2013-09-13T12:14:31.908Z</time>
 <name>Topla Reber</name>
</wpt>
<wpt lat="45.7500000" lon="15.0333334">
 <time>2013-09-13T12:14:31.908Z</time>
 <name>Meniska Vas</name>
</wpt>
<wpt lat="45.7500000" lon="15.1000000">
 <time>2013-09-13T12:14:31.908Z</time>
 <name>Drganja Sela</name>
</wpt>
<wpt lat="45.7500000" lon="15.1666667">
 <time>2013-09-13T12:14:31.908Z</time>
 <name>Gorenje Lakovnice</name>
</wpt>
<wpt lat="45.7500000" lon="15.1666667">
 <time>2013-09-13T12:14:31.908Z</time>
 <name>Dolenje Lakovnice</name>
</wpt>
<wpt lat="45.7500000" lon="15.1833334">
 <time>2013-09-13T12:14:31.908Z</time>
 <name>Jurna Vas</name>
</wpt>
<wpt lat="45.7500000" lon="15.2000000">
 <time>2013-09-13T12:14:31.908Z</time>
 <name>Koroska Vas</name>
</wpt>
<wpt lat="45.7500000" lon="15.3333334">
 <time>2013-09-13T12:14:31.908Z</time>
 <name>Zumberacka Gora</name>
</wpt>
<wpt lat="45.7508333" lon="14.1891667">
 <time>2013-09-13T12:14:31.908Z</time>
 <name>Pivka</name>
</wpt>
<wpt lat="45.7536111" lon="13.8838889">
 <time>2013-09-13T12:14:31.908Z</time>
 <name>Utovlje</name>
</wpt>
<wpt lat="45.7544444" lon="14.1977778">
 <time>2013-09-13T12:14:31.908Z</time>
 <name>Postojna</name>
</wpt>
<wpt lat="45.7547222" lon="13.9680556">
 <time>2013-09-13T12:14:31.908Z</time>
 <name>Ter</name>
</wpt>
<wpt lat="45.7566667" lon="13.8511111">
 <time>2013-09-13T12:14:31.908Z</time>
 <name>Tomaj</name>
</wpt>
<wpt lat="45.7572222" lon="13.9466667">
 <time>2013-09-13T12:14:31.908Z</time>
 <name>Grize</name>
</wpt>
<wpt lat="45.7580556" lon="14.0602778">
 <time>2013-09-13T12:14:31.908Z</time>
 <name>Razdrto</name>
</wpt>
<wpt lat="45.7594444" lon="14.2966667">
 <time>2013-09-13T12:14:31.908Z</time>
 <name>Veliki Javornik</name>
</wpt>
<wpt lat="45.7594444" lon="14.4266667">
 <time>2013-09-13T12:14:31.908Z</time>
 <name>Zerovnica</name>
</wpt>
<wpt lat="45.7597222" lon="13.8330556">
 <time>2013-09-13T12:14:31.908Z</time>
 <name>Dutovlje</name>
</wpt>
<wpt lat="45.7608333" lon="14.9288889">
 <time>2013-09-13T12:14:31.908Z</time>
 <name>Smuka</name>
</wpt>
<wpt lat="45.7611111" lon="14.0300000">
 <time>2013-09-13T12:14:31.908Z</time>
 <name>Vrtovsce</name>
</wpt>
<wpt lat="45.7611111" lon="15.0313889">
 <time>2013-09-13T12:14:31.908Z</time>
 <name>Podhosta</name>
</wpt>
<wpt lat="0.0000000" lon="0.0000000">
 <time>1992-01-02T00:00:00.000Z</time>
 <name></name>
</wpt>
<wpt lat="45.7611111" lon="15.2516667">
 <time>2013-09-13T12:14:31.908Z</time>
 <name>Dolz</name>
</wpt>
<wpt lat="45.7616667" lon="14.1077778">
 <time>2013-09-13T12:14:31.908Z</time>
 <name>Hrusevje</name>
</wpt>
<wpt lat="45.7619444" lon="13.9072223">
 <time>2013-09-13T12:14:31.908Z</time>
 <name>Kazlje</name>
</wpt>
<wpt lat="45.7619444" lon="14.2127778">
 <time>2013-09-13T12:14:31.908Z</time>
 <name>Stara Vas</name>
</wpt>
<wpt lat="45.7622222" lon="14.4691667">
 <time>2013-09-13T12:14:31.908Z</time>
 <name>Bloska Polica</name>
</wpt>
<wpt lat="45.7625000" lon="14.6363889">
 <time>2013-09-13T12:14:31.908Z</time>
 <name>Sodrazica</name>
</wpt>
<wpt lat="45.7638889" lon="13.9627778">
 <time>2013-09-13T12:14:31.908Z</time>
 <name>Kras</name>
</wpt>
<wpt lat="45.7652778" lon="14.7405556">
 <time>2013-09-13T12:14:31.908Z</time>
 <name>Mala Gora</name>
</wpt>
<wpt lat="45.7652778" lon="15.0400000">
 <time>2013-09-13T12:14:31.908Z</time>
 <name>Crmosnjica</name>
</wpt>
<wpt lat="45.7663889" lon="14.5347223">
 <time>2013-09-13T12:14:31.908Z</time>
 <name>Studenec</name>
</wpt>
<wpt lat="45.7666667" lon="13.7500000">
 <time>2013-09-13T12:14:31.908Z</time>
 <name>Veliki Dol</name>
</wpt>
<wpt lat="45.7666667" lon="13.7500000">
 <time>2013-09-13T12:14:31.908Z</time>
 <name>Tublje pri Komnu</name>
</wpt>
<wpt lat="45.7666667" lon="14.1166667">
 <time>2013-09-13T12:14:31.908Z</time>
 <name>Velika Brda</name>
</wpt>
<wpt lat="45.7666667" lon="14.1166667">
 <time>2013-09-13T12:14:31.908Z</time>
 <name>Mala Brda</name>
</wpt>
<wpt lat="45.7666667" lon="14.1333334">
 <time>2013-09-13T12:14:31.908Z</time>
 <name>Gorice</name>
</wpt>
<wpt lat="45.7666667" lon="14.1500000">
 <time>2013-09-13T12:14:31.908Z</time>
 <name>Studenec</name>
</wpt>
<wpt lat="45.7666667" lon="14.2000000">
 <time>2013-09-13T12:14:31.908Z</time>
 <name>Zalog</name>
</wpt>
<wpt lat="45.7666667" lon="14.2666667">
 <time>2013-09-13T12:14:31.908Z</time>
 <name>Mali Javornik</name>
</wpt>
<wpt lat="45.7666667" lon="14.4333334">
 <time>2013-09-13T12:14:31.908Z</time>
 <name>Notranjsko</name>
</wpt>
<wpt lat="45.7666667" lon="14.5000000">
 <time>2013-09-13T12:14:31.908Z</time>
 <name>Glina</name>
</wpt>
<wpt lat="45.7666667" lon="14.5333334">
 <time>2013-09-13T12:14:31.908Z</time>
 <name>Hudi Vrh</name>
</wpt>
<wpt lat="45.7666667" lon="14.5500000">
 <time>2013-09-13T12:14:31.908Z</time>
 <name>Runarsko</name>
</wpt>
<wpt lat="45.7666667" lon="14.6166667">
 <time>2013-09-13T12:14:31.908Z</time>
 <name>Globel</name>
</wpt>
<wpt lat="45.7666667" lon="14.6500000">
 <time>2013-09-13T12:14:31.908Z</time>
 <name>Zamostec</name>
</wpt>
<wpt lat="45.7666667" lon="14.6833334">
 <time>2013-09-13T12:14:31.908Z</time>
 <name>Zapotok</name>
</wpt>
<wpt lat="45.7666667" lon="14.7000000">
 <time>2013-09-13T12:14:31.908Z</time>
 <name>Susje</name>
</wpt>
<wpt lat="45.7666667" lon="14.7166667">
 <time>2013-09-13T12:14:31.908Z</time>
 <name>Dolenji Lazi</name>
</wpt>
<wpt lat="45.7666667" lon="14.8000000">
 <time>2013-09-13T12:14:31.908Z</time>
 <name>Rapljevo</name>
</wpt>
<wpt lat="45.7666667" lon="14.8666667">
 <time>2013-09-13T12:14:31.908Z</time>
 <name>Ples</name>
</wpt>
<wpt lat="45.7666667" lon="14.8833334">
 <time>2013-09-13T12:14:31.908Z</time>
 <name>Hrib pri Hinjah</name>
</wpt>
<wpt lat="45.7666667" lon="14.8833334">
 <time>2013-09-13T12:14:31.908Z</time>
 <name>Hinje</name>
</wpt>
<wpt lat="45.7666667" lon="15.0500000">
 <time>2013-09-13T12:14:31.908Z</time>
 <name>Gorenje Gradisce</name>
</wpt>
<wpt lat="45.7666667" lon="15.0666667">
 <time>2013-09-13T12:14:31.908Z</time>
 <name>Dolenjske Toplice</name>
</wpt>
<wpt lat="45.7666667" lon="15.1166667">
 <time>2013-09-13T12:14:31.908Z</time>
 <name>Gorenje Mrasevo</name>
</wpt>
<wpt lat="45.7666667" lon="15.1166667">
 <time>2013-09-13T12:14:31.908Z</time>
 <name>Dolnje Mrasevo</name>
</wpt>
<wpt lat="45.7666667" lon="15.1500000">
 <time>2013-09-13T12:14:31.908Z</time>
 <name>Bircna Vas</name>
</wpt>
<wpt lat="45.7666667" lon="15.2000000">
 <time>2013-09-13T12:14:31.908Z</time>
 <name>Gornja Tezka Voda</name>
</wpt>
<wpt lat="45.7666667" lon="15.2000000">
 <time>2013-09-13T12:14:31.908Z</time>
 <name>Dolnja Tezka Voda</name>
</wpt>
<wpt lat="45.7666667" lon="15.2333334">
 <time>2013-09-13T12:14:31.908Z</time>
 <name>Veliki Orehek</name>
</wpt>
<wpt lat="45.7666667" lon="15.2333334">
 <time>2013-09-13T12:14:31.908Z</time>
 <name>Mali Orehek</name>
</wpt>
<wpt lat="45.7666667" lon="15.3166667">
 <time>2013-09-13T12:14:31.908Z</time>
 <name>Trdinov Vrh</name>
</wpt>
<wpt lat="45.7672222" lon="13.8819445">
 <time>2013-09-13T12:14:31.908Z</time>
 <name>Dobravlje</name>
</wpt>
<wpt lat="45.7675000" lon="13.8016667">
 <time>2013-09-13T12:14:31.908Z</time>
 <name>Krajna Vas</name>
</wpt>
<wpt lat="45.7680556" lon="13.9755556">
 <time>2013-09-13T12:14:31.908Z</time>
 <name>Veliko Polje</name>
</wpt>
<wpt lat="45.7683333" lon="14.1841667">
 <time>2013-09-13T12:14:31.908Z</time>
 <name>Nanoscica</name>
</wpt>
<wpt lat="45.7683333" lon="15.0588889">
 <time>2013-09-13T12:14:31.908Z</time>
 <name>Dolenje Gradisce</name>
</wpt>
<wpt lat="45.7686111" lon="13.9586111">
 <time>2013-09-13T12:14:31.908Z</time>
 <name>Tabor</name>
</wpt>
<wpt lat="45.7691667" lon="14.5811111">
 <time>2013-09-13T12:14:31.908Z</time>
 <name>Podklanec</name>
</wpt>
<wpt lat="45.7691667" lon="14.8852778">
 <time>2013-09-13T12:14:31.908Z</time>
 <name>Prevale</name>
</wpt>
<wpt lat="45.7702778" lon="15.2094445">
 <time>2013-09-13T12:14:31.908Z</time>
 <name>Zajcji Vrh pri Stopicah</name>
</wpt>
<wpt lat="45.7708333" lon="14.4244445">
 <time>2013-09-13T12:14:31.908Z</time>
 <name>Grahovo</name>
</wpt>
<wpt lat="45.7725000" lon="13.8208334">
 <time>2013-09-13T12:14:31.908Z</time>
 <name>Skopo</name>
</wpt>
<wpt lat="45.7730556" lon="13.9258334">
 <time>2013-09-13T12:14:31.908Z</time>
 <name>Sela</name>
</wpt>
<wpt lat="45.7730556" lon="14.0727778">
 <time>2013-09-13T12:14:31.908Z</time>
 <name>Veliko</name>
</wpt>
<wpt lat="45.7741667" lon="14.0802778">
 <time>2013-09-13T12:14:31.908Z</time>
 <name>Malo Ubeljsko</name>
</wpt>
<wpt lat="45.7741667" lon="14.5075000">
 <time>2013-09-13T12:14:31.908Z</time>
 <name>Nova Vas</name>
</wpt>
<wpt lat="45.7744444" lon="13.7808334">
 <time>2013-09-13T12:14:31.908Z</time>
 <name>Pliskovica</name>
</wpt>
<wpt lat="0.0000000" lon="0.0000000">
 <time>1992-01-02T00:00:00.000Z</time>
 <name></name>
</wpt>
<wpt lat="45.7761111" lon="13.9594445">
 <time>2013-09-13T12:14:31.908Z</time>
 <name>Vrabce</name>
</wpt>
<wpt lat="45.7763889" lon="14.3600000">
 <time>2013-09-13T12:14:31.908Z</time>
 <name>Dolenje Jezero</name>
</wpt>
<wpt lat="45.7766667" lon="13.8408334">
 <time>2013-09-13T12:14:31.908Z</time>
 <name>Brje pri Koprivi</name>
</wpt>
<wpt lat="45.7766667" lon="14.4041667">
 <time>2013-09-13T12:14:31.908Z</time>
 <name>Martinjak</name>
</wpt>
<wpt lat="45.7780556" lon="14.2188889">
 <time>2013-09-13T12:14:31.908Z</time>
 <name>Postojna</name>
</wpt>
<wpt lat="45.7802778" lon="14.6025000">
 <time>2013-09-13T12:14:31.908Z</time>
 <name>Zimarice</name>
</wpt>
<wpt lat="45.7805556" lon="13.8719445">
 <time>2013-09-13T12:14:31.908Z</time>
 <name>Avber</name>
</wpt>
<wpt lat="45.7813889" lon="13.7208334">
 <time>2013-09-13T12:14:31.908Z</time>
 <name>Brje pri Komnu</name>
</wpt>
<wpt lat="45.7813889" lon="13.9958334">
 <time>2013-09-13T12:14:31.908Z</time>
 <name>Lozice</name>
</wpt>
<wpt lat="45.7816667" lon="14.1325000">
 <time>2013-09-13T12:14:31.908Z</time>
 <name>Hrenovice</name>
</wpt>
<wpt lat="45.7822222" lon="13.8338889">
 <time>2013-09-13T12:14:31.908Z</time>
 <name>Kopriva</name>
</wpt>
<wpt lat="45.7825000" lon="15.2755556">
 <time>2013-09-13T12:14:31.908Z</time>
 <name>Gabrje</name>
</wpt>
<wpt lat="45.7833333" lon="14.0833334">
 <time>2013-09-13T12:14:31.908Z</time>
 <name>Veliko Ubeljsko</name>
</wpt>
<wpt lat="45.7833333" lon="14.1500000">
 <time>2013-09-13T12:14:31.908Z</time>
 <name>Landol</name>
</wpt>
<wpt lat="45.7833333" lon="14.1500000">
 <time>2013-09-13T12:14:31.908Z</time>
 <name>Hrasce</name>
</wpt>
<wpt lat="45.7833333" lon="14.1833334">
 <time>2013-09-13T12:14:31.908Z</time>
 <name>Mali Otok</name>
</wpt>
<wpt lat="45.7833333" lon="14.2833334">
 <time>2013-09-13T12:14:31.908Z</time>
 <name>Rak</name>
</wpt>
<wpt lat="45.7833333" lon="14.4666667">
 <time>2013-09-13T12:14:31.908Z</time>
 <name>Radlek</name>
</wpt>
<wpt lat="45.7833333" lon="14.5000000">
 <time>2013-09-13T12:14:31.924Z</time>
 <name>Bloscica</name>
</wpt>
<wpt lat="45.7833333" lon="14.5000000">
 <time>2013-09-13T12:14:31.924Z</time>
 <name>Bloke</name>
</wpt>
<wpt lat="45.7833333" lon="14.5833334">
 <time>2013-09-13T12:14:31.924Z</time>
 <name>Novi Pot</name>
</wpt>
<wpt lat="45.7833333" lon="14.6833334">
 <time>2013-09-13T12:14:31.924Z</time>
 <name>Ortnek</name>
</wpt>
<wpt lat="45.7833333" lon="14.7000000">
 <time>2013-09-13T12:14:31.924Z</time>
 <name>Zlebic</name>
</wpt>
<wpt lat="45.7833333" lon="14.7833334">
 <time>2013-09-13T12:14:31.924Z</time>
 <name>Pri Cerkvi-Struge</name>
</wpt>
<wpt lat="45.7833333" lon="14.8666667">
 <time>2013-09-13T12:14:31.924Z</time>
 <name>Ratje</name>
</wpt>
<wpt lat="45.7833333" lon="15.0166667">
 <time>2013-09-13T12:14:31.924Z</time>
 <name>Drenje</name>
</wpt>
<wpt lat="45.7833333" lon="15.0666667">
 <time>2013-09-13T12:14:31.924Z</time>
 <name>Rumanja Vas</name>
</wpt>
<wpt lat="45.7833333" lon="15.0833334">
 <time>2013-09-13T12:14:31.924Z</time>
 <name>Gorenja Straza</name>
</wpt>
<wpt lat="45.7833333" lon="15.1000000">
 <time>2013-09-13T12:14:31.924Z</time>
 <name>Potok pri Gorenji Strazi</name>
</wpt>
<wpt lat="45.7833333" lon="15.1166667">
 <time>2013-09-13T12:14:31.924Z</time>
 <name>Vrh pri Ljubnu</name>
</wpt>
<wpt lat="45.7833333" lon="15.1500000">
 <time>2013-09-13T12:14:31.924Z</time>
 <name>Skrjance pri Novem Mestu</name>
</wpt>
<wpt lat="45.7833333" lon="15.2333334">
 <time>2013-09-13T12:14:31.924Z</time>
 <name>Hrusica</name>
</wpt>
<wpt lat="45.7833333" lon="15.2833334">
 <time>2013-09-13T12:14:31.924Z</time>
 <name>Gorenji Suhadol</name>
</wpt>
<wpt lat="45.7838889" lon="14.7752778">
 <time>2013-09-13T12:14:31.924Z</time>
 <name>Lipa</name>
</wpt>
<wpt lat="45.7841667" lon="14.8252778">
 <time>2013-09-13T12:14:31.924Z</time>
 <name>Zvirce</name>
</wpt>
<wpt lat="45.7852778" lon="14.1997223">
 <time>2013-09-13T12:14:31.924Z</time>
 <name>Veliki Otok</name>
</wpt>
<wpt lat="0.0000000" lon="0.0000000">
 <time>1992-01-02T00:00:00.000Z</time>
 <name></name>
</wpt>
<wpt lat="45.7861111" lon="14.4819445">
 <time>2013-09-13T12:14:31.924Z</time>
 <name>Velike Bloke</name>
</wpt>
<wpt lat="45.7869444" lon="13.7966667">
 <time>2013-09-13T12:14:31.924Z</time>
 <name>Kosovelje</name>
</wpt>
<wpt lat="45.7875000" lon="14.0888889">
 <time>2013-09-13T12:14:31.924Z</time>
 <name>Strane</name>
</wpt>
<wpt lat="45.7877778" lon="13.9925000">
 <time>2013-09-13T12:14:31.924Z</time>
 <name>Podgric</name>
</wpt>
<wpt lat="45.7883333" lon="14.3480556">
 <time>2013-09-13T12:14:31.924Z</time>
 <name>Dolenja Vas</name>
</wpt>
<wpt lat="45.7905556" lon="14.9486111">
 <time>2013-09-13T12:14:31.924Z</time>
 <name>Lasce</name>
</wpt>
<wpt lat="45.7916667" lon="14.4083334">
 <time>2013-09-13T12:14:31.924Z</time>
 <name>Slivnica</name>
</wpt>
<wpt lat="45.7919444" lon="13.8658334">
 <time>2013-09-13T12:14:31.924Z</time>
 <name>Ponikve</name>
</wpt>
<wpt lat="45.7944444" lon="14.3641667">
 <time>2013-09-13T12:14:31.924Z</time>
 <name>Cerknica</name>
</wpt>
<wpt lat="45.7950000" lon="13.9061111">
 <time>2013-09-13T12:14:31.924Z</time>
 <name>Stjak</name>
</wpt>
<wpt lat="45.7952778" lon="14.4711111">
 <time>2013-09-13T12:14:31.924Z</time>
 <name>Ulaka</name>
</wpt>
<wpt lat="45.7952778" lon="15.1241667">
 <time>2013-09-13T12:14:31.924Z</time>
 <name>Temenica</name>
</wpt>
<wpt lat="45.7952778" lon="15.3441667">
 <time>2013-09-13T12:14:31.924Z</time>
 <name>Pircev Hrib</name>
</wpt>
<wpt lat="45.7955556" lon="14.1777778">
 <time>2013-09-13T12:14:31.924Z</time>
 <name>Zagon</name>
</wpt>
<wpt lat="45.7961111" lon="13.9680556">
 <time>2013-09-13T12:14:31.924Z</time>
 <name>Podnanos</name>
</wpt>
<wpt lat="45.7963889" lon="14.1344445">
 <time>2013-09-13T12:14:31.924Z</time>
 <name>Brinje</name>
</wpt>
<wpt lat="45.7966667" lon="14.8894445">
 <time>2013-09-13T12:14:31.924Z</time>
 <name>Sela pri Hinjah</name>
</wpt>
<wpt lat="45.7975000" lon="13.8852778">
 <time>2013-09-13T12:14:31.924Z</time>
 <name>Ravne</name>
</wpt>
<wpt lat="45.7977778" lon="14.7508334">
 <time>2013-09-13T12:14:31.924Z</time>
 <name>Cetez pri Strugah</name>
</wpt>
<wpt lat="45.7980556" lon="14.1213889">
 <time>2013-09-13T12:14:31.924Z</time>
 <name>Smihel pod Nanosom</name>
</wpt>
<wpt lat="45.7983333" lon="13.7461111">
 <time>2013-09-13T12:14:31.924Z</time>
 <name>Volcji Grad</name>
</wpt>
<wpt lat="45.7986111" lon="15.1661111">
 <time>2013-09-13T12:14:31.924Z</time>
 <name>Novo Mesto</name>
</wpt>
<wpt lat="45.7997222" lon="15.1019445">
 <time>2013-09-13T12:14:31.924Z</time>
 <name>Novo Mesto</name>
</wpt>
<wpt lat="45.8000000" lon="13.7333334">
 <time>2013-09-13T12:14:31.924Z</time>
 <name>Nadrozica</name>
</wpt>
<wpt lat="45.8000000" lon="14.3333334">
 <time>2013-09-13T12:14:31.924Z</time>
 <name>Zelse</name>
</wpt>
<wpt lat="0.0000000" lon="0.0000000">
 <time>1992-01-02T00:00:00.000Z</time>
 <name></name>
</wpt>
<wpt lat="45.8000000" lon="14.5666667">
 <time>2013-09-13T12:14:31.924Z</time>
 <name>Luzarji</name>
</wpt>
<wpt lat="45.8000000" lon="14.6000000">
 <time>2013-09-13T12:14:31.924Z</time>
 <name>Podzaga</name>
</wpt>
<wpt lat="45.8000000" lon="14.6500000">
 <time>2013-09-13T12:14:31.924Z</time>
 <name>Marolce</name>
</wpt>
<wpt lat="45.8000000" lon="14.7000000">
 <time>2013-09-13T12:14:31.924Z</time>
 <name>Velike Poljane</name>
</wpt>
<wpt lat="45.8000000" lon="14.9166667">
 <time>2013-09-13T12:14:31.924Z</time>
 <name>Lopata</name>
</wpt>
<wpt lat="45.8000000" lon="14.9666667">
 <time>2013-09-13T12:14:31.924Z</time>
 <name>Podgozd</name>
</wpt>
<wpt lat="45.8000000" lon="14.9833334">
 <time>2013-09-13T12:14:31.924Z</time>
 <name>Gornji Kot</name>
</wpt>
<wpt lat="45.8000000" lon="14.9833334">
 <time>2013-09-13T12:14:31.924Z</time>
 <name>Dolnji Kot</name>
</wpt>
<wpt lat="45.8000000" lon="15.0333334">
 <time>2013-09-13T12:14:31.924Z</time>
 <name>Veliki Lipovec</name>
</wpt>
<wpt lat="45.8000000" lon="15.1000000">
 <time>2013-09-13T12:14:31.924Z</time>
 <name>Dolenja Straza</name>
</wpt>
<wpt lat="45.8000000" lon="15.1333334">
 <time>2013-09-13T12:14:31.924Z</time>
 <name>Zalog</name>
</wpt>
<wpt lat="45.8000000" lon="15.1500000">
 <time>2013-09-13T12:14:31.924Z</time>
 <name>Smihel pri Novem Mestu</name>
</wpt>
<wpt lat="0.0000000" lon="0.0000000">
 <time>1992-01-02T00:00:00.000Z</time>
 <name></name>
</wpt>
<wpt lat="45.8000000" lon="15.1833334">
 <time>2013-09-13T12:14:31.924Z</time>
 <name>Gotna Vas</name>
</wpt>
<wpt lat="45.8000000" lon="15.2000000">
 <time>2013-09-13T12:14:31.924Z</time>
 <name>Velika Cikava</name>
</wpt>
<wpt lat="45.8000000" lon="15.2000000">
 <time>2013-09-13T12:14:31.924Z</time>
 <name>Mala Cikava</name>
</wpt>
<wpt lat="45.8000000" lon="15.2333334">
 <time>2013-09-13T12:14:31.924Z</time>
 <name>Veliki Slatnik</name>
</wpt>
<wpt lat="45.8000000" lon="15.2333334">
 <time>2013-09-13T12:14:31.924Z</time>
 <name>Potov Vrh</name>
</wpt>
<wpt lat="45.8000000" lon="15.2833334">
 <time>2013-09-13T12:14:31.924Z</time>
 <name>Dolenji Suhadol</name>
</wpt>
<wpt lat="45.8000000" lon="15.3500000">
 <time>2013-09-13T12:14:31.924Z</time>
 <name>Vratno</name>
</wpt>
<wpt lat="45.8000000" lon="15.4166667">
 <time>2013-09-13T12:14:31.924Z</time>
 <name>Opatova Gora</name>
</wpt>
<wpt lat="0.0000000" lon="0.0000000">
 <time>1992-01-02T00:00:00.000Z</time>
 <name></name>
</wpt>
<wpt lat="45.8030556" lon="13.7141667">
 <time>2013-09-13T12:14:31.924Z</time>
 <name>Gorjansko</name>
</wpt>
<wpt lat="0.0000000" lon="0.0000000">
 <time>1992-01-02T00:00:00.000Z</time>
 <name></name>
</wpt>
<wpt lat="45.8050000" lon="15.3305556">
 <time>2013-09-13T12:14:31.924Z</time>
 <name>Mihovo</name>
</wpt>
<wpt lat="45.8052778" lon="13.9466667">
 <time>2013-09-13T12:14:31.924Z</time>
 <name>Podraga</name>
</wpt>
<wpt lat="45.8055556" lon="13.8791667">
 <time>2013-09-13T12:14:31.924Z</time>
 <name>Krtinovica</name>
</wpt>
<wpt lat="45.8055556" lon="15.1633334">
 <time>2013-09-13T12:14:31.924Z</time>
 <name>Novo Mesto Center</name>
</wpt>
<wpt lat="45.8061111" lon="14.5733334">
 <time>2013-09-13T12:14:31.924Z</time>
 <name>Podstrmec</name>
</wpt>
<wpt lat="45.8061111" lon="15.0222223">
 <time>2013-09-13T12:14:31.924Z</time>
 <name>Brezova Reber Pri Dvoru</name>
</wpt>
<wpt lat="45.8066667" lon="14.5144445">
 <time>2013-09-13T12:14:31.924Z</time>
 <name>Ravnik</name>
</wpt>
<wpt lat="45.8075000" lon="13.7786111">
 <time>2013-09-13T12:14:31.924Z</time>
 <name>Gabrovica pri Komnu</name>
</wpt>
<wpt lat="45.8075000" lon="15.3594445">
 <time>2013-09-13T12:14:31.924Z</time>
 <name>Javorovica</name>
</wpt>
<wpt lat="45.8083333" lon="14.4450000">
 <time>2013-09-13T12:14:31.924Z</time>
 <name>Podslivnica</name>
</wpt>
<wpt lat="45.8088889" lon="15.1444445">
 <time>2013-09-13T12:14:31.924Z</time>
 <name>Cegelnica Pri Novem Mestu</name>
</wpt>
<wpt lat="45.8091667" lon="13.6927778">
 <time>2013-09-13T12:14:31.924Z</time>
 <name>Klanc</name>
</wpt>
<wpt lat="45.8097222" lon="13.8277778">
 <time>2013-09-13T12:14:31.924Z</time>
 <name>Hrusevica</name>
</wpt>
<wpt lat="45.8097222" lon="14.6277778">
 <time>2013-09-13T12:14:31.924Z</time>
 <name>Mala Slevica</name>
</wpt>
<wpt lat="45.8116667" lon="13.8805556">
 <time>2013-09-13T12:14:31.924Z</time>
 <name>Veckoti</name>
</wpt>
<wpt lat="45.8125000" lon="15.4058334">
 <time>2013-09-13T12:14:31.924Z</time>
 <name>Mircev Gric</name>
</wpt>
<wpt lat="45.8136111" lon="13.7466667">
 <time>2013-09-13T12:14:31.924Z</time>
 <name>Komen</name>
</wpt>
<wpt lat="45.8141667" lon="13.9066667">
 <time>2013-09-13T12:14:31.924Z</time>
 <name>Trebizani</name>
</wpt>
<wpt lat="45.8144444" lon="14.1377778">
 <time>2013-09-13T12:14:31.924Z</time>
 <name>Pristava</name>
</wpt>
<wpt lat="45.8147222" lon="14.5525000">
 <time>2013-09-13T12:14:31.924Z</time>
 <name>Naredi</name>
</wpt>
<wpt lat="45.8150000" lon="13.6722223">
 <time>2013-09-13T12:14:31.924Z</time>
 <name>Vale</name>
</wpt>
<wpt lat="45.8152778" lon="14.1308334">
 <time>2013-09-13T12:14:31.924Z</time>
 <name>Bukovje</name>
</wpt>
<wpt lat="45.8155556" lon="14.3130556">
 <time>2013-09-13T12:14:31.924Z</time>
 <name>Rakek</name>
</wpt>
<wpt lat="45.8161111" lon="14.9697223">
 <time>2013-09-13T12:14:31.924Z</time>
 <name>Jama</name>
</wpt>
<wpt lat="45.8163889" lon="13.8877778">
 <time>2013-09-13T12:14:31.924Z</time>
 <name>Rasa</name>
</wpt>
<wpt lat="45.8166667" lon="13.7333334">
 <time>2013-09-13T12:14:31.924Z</time>
 <name>Preserje pri Komnu</name>
</wpt>
<wpt lat="45.8166667" lon="14.1333334">
 <time>2013-09-13T12:14:31.924Z</time>
 <name>Predjama</name>
</wpt>
<wpt lat="45.8166667" lon="14.1500000">
 <time>2013-09-13T12:14:31.924Z</time>
 <name>Gorenje</name>
</wpt>
<wpt lat="45.8166667" lon="14.1500000">
 <time>2013-09-13T12:14:31.924Z</time>
 <name>Belsko</name>
</wpt>
<wpt lat="45.8166667" lon="14.2666667">
 <time>2013-09-13T12:14:31.924Z</time>
 <name>Malni</name>
</wpt>
<wpt lat="45.8166667" lon="14.4000000">
 <time>2013-09-13T12:14:31.924Z</time>
 <name>Topol pri Begunjah</name>
</wpt>
<wpt lat="45.8166667" lon="14.4500000">
 <time>2013-09-13T12:14:31.924Z</time>
 <name>Ponikve</name>
</wpt>
<wpt lat="45.8166667" lon="14.5000000">
 <time>2013-09-13T12:14:31.924Z</time>
 <name>Sivce</name>
</wpt>
<wpt lat="45.8166667" lon="14.5000000">
 <time>2013-09-13T12:14:31.924Z</time>
 <name>Gradisko</name>
</wpt>
<wpt lat="45.8166667" lon="14.5166667">
 <time>2013-09-13T12:14:31.924Z</time>
 <name>Lepi Vrh</name>
</wpt>
<wpt lat="45.8166667" lon="14.6166667">
 <time>2013-09-13T12:14:31.924Z</time>
 <name>Velika Slevica</name>
</wpt>
<wpt lat="45.8166667" lon="14.6500000">
 <time>2013-09-13T12:14:31.924Z</time>
 <name>Dvorska Vas</name>
</wpt>
<wpt lat="45.8166667" lon="14.7000000">
 <time>2013-09-13T12:14:31.924Z</time>
 <name>Vrh pri Poljanah</name>
</wpt>
<wpt lat="45.8166667" lon="14.8166667">
 <time>2013-09-13T12:14:31.924Z</time>
 <name>Ambrus</name>
</wpt>
<wpt lat="45.8166667" lon="14.8333334">
 <time>2013-09-13T12:14:31.924Z</time>
 <name>Primca Vas</name>
</wpt>
<wpt lat="45.8166667" lon="14.8500000">
 <time>2013-09-13T12:14:31.924Z</time>
 <name>Visnje</name>
</wpt>
<wpt lat="45.8166667" lon="14.8666667">
 <time>2013-09-13T12:14:31.924Z</time>
 <name>Visejec</name>
</wpt>
<wpt lat="45.8166667" lon="14.9166667">
 <time>2013-09-13T12:14:31.924Z</time>
 <name>Gradenc</name>
</wpt>
<wpt lat="45.8166667" lon="14.9666667">
 <time>2013-09-13T12:14:31.924Z</time>
 <name>Mackovec pri Dvoru</name>
</wpt>
<wpt lat="45.8166667" lon="14.9833334">
 <time>2013-09-13T12:14:31.924Z</time>
 <name>Dvor</name>
</wpt>
<wpt lat="45.8166667" lon="15.0000000">
 <time>2013-09-13T12:14:31.924Z</time>
 <name>Mali Lipovec</name>
</wpt>
<wpt lat="45.8166667" lon="15.0333334">
 <time>2013-09-13T12:14:31.924Z</time>
 <name>Borst</name>
</wpt>
<wpt lat="45.8166667" lon="15.0500000">
 <time>2013-09-13T12:14:31.924Z</time>
 <name>Brezova Reber pri Dvoru</name>
</wpt>
<wpt lat="45.8166667" lon="15.1166667">
 <time>2013-09-13T12:14:31.924Z</time>
 <name>Precna</name>
</wpt>
<wpt lat="45.8166667" lon="15.1500000">
 <time>2013-09-13T12:14:31.924Z</time>
 <name>Brsljin</name>
</wpt>
<wpt lat="45.8166667" lon="15.2000000">
 <time>2013-09-13T12:14:31.924Z</time>
 <name>Smolenja Vas</name>
</wpt>
<wpt lat="45.8166667" lon="15.2500000">
 <time>2013-09-13T12:14:31.924Z</time>
 <name>Velike Brusnice</name>
</wpt>
<wpt lat="45.8166667" lon="15.2500000">
 <time>2013-09-13T12:14:31.924Z</time>
 <name>Male Brusnice</name>
</wpt>
<wpt lat="45.8166667" lon="15.3000000">
 <time>2013-09-13T12:14:31.924Z</time>
 <name>Tolsti Vrh</name>
</wpt>
<wpt lat="45.8166667" lon="15.3166667">
 <time>2013-09-13T12:14:31.924Z</time>
 <name>Orehovica</name>
</wpt>
<wpt lat="45.8166667" lon="15.3666667">
 <time>2013-09-13T12:14:31.924Z</time>
 <name>Veliki Ban</name>
</wpt>
<wpt lat="45.8166667" lon="15.3666667">
 <time>2013-09-13T12:14:31.924Z</time>
 <name>Mali Ban</name>
</wpt>
<wpt lat="45.8166667" lon="15.4000000">
 <time>2013-09-13T12:14:31.924Z</time>
 <name>Velike Vodenice</name>
</wpt>
<wpt lat="45.8166667" lon="15.4000000">
 <time>2013-09-13T12:14:31.924Z</time>
 <name>Male Vodenice</name>
</wpt>
<wpt lat="45.8166667" lon="15.4166667">
 <time>2013-09-13T12:14:31.924Z</time>
 <name>Orehovec</name>
</wpt>
<wpt lat="45.8166667" lon="15.6500000">
 <time>2013-09-13T12:14:31.924Z</time>
 <name>Usklopec</name>
</wpt>
<wpt lat="45.8169444" lon="13.6275000">
 <time>2013-09-13T12:14:31.924Z</time>
 <name>Brestovica pri Komnu</name>
</wpt>
<wpt lat="45.8169444" lon="14.2944445">
 <time>2013-09-13T12:14:31.924Z</time>
 <name>Unec</name>
</wpt>
<wpt lat="45.8172222" lon="13.8558334">
 <time>2013-09-13T12:14:31.924Z</time>
 <name>Stanjel</name>
</wpt>
<wpt lat="45.8172222" lon="13.9622223">
 <time>2013-09-13T12:14:31.924Z</time>
 <name>Mance</name>
</wpt>
<wpt lat="45.8175000" lon="13.8897223">
 <time>2013-09-13T12:14:31.924Z</time>
 <name>Branica</name>
</wpt>
<wpt lat="45.8180556" lon="13.6980556">
 <time>2013-09-13T12:14:31.924Z</time>
 <name>Ivanji Grad</name>
</wpt>
<wpt lat="45.8180556" lon="13.8061111">
 <time>2013-09-13T12:14:31.924Z</time>
 <name>Glava</name>
</wpt>
<wpt lat="45.8180556" lon="14.7172223">
 <time>2013-09-13T12:14:31.924Z</time>
 <name>Kompolje</name>
</wpt>
<wpt lat="0.0000000" lon="0.0000000">
 <time>1992-01-02T00:00:00.000Z</time>
 <name></name>
</wpt>
<wpt lat="45.8200000" lon="14.3836111">
 <time>2013-09-13T12:14:31.924Z</time>
 <name>Begunje pri Cerknici</name>
</wpt>
<wpt lat="45.8208333" lon="14.5619445">
 <time>2013-09-13T12:14:31.924Z</time>
 <name>Bane</name>
</wpt>